"stop_id","stop_name","stop_lat","stop_lon","location_type","parent_station"
"CON_10","FIUMINATA - SPINDOLI","43.1945731144142","12.9011049899993",,
"CON_100","CONTRADA LA VILLA (CESSAPALOMBO)","43.0963589651697","13.2274826673481",,
"CON_1000","MONTEGRANARO ROTATORIA","43.2305526785537","13.6286785864593",,
"CON_10001","MONTECOSARO S. S.STEFANO","43.2931587011451","13.6442939116288",,
"CON_10002","BELFORTE DI CHIENTI S.S. 77 FONTE MORETO","43.1775073325992","13.2522904632527",,
"CON_10010","APPIGNANO VIA MANZONI","43.3572613206029","13.3417980724953",,
"CON_10011","SAN SEVERINO VIA MAZZINI","43.2271059158698","13.1870130810238",,
"CON_101","CAMPOROTONDO","43.1306980943695","13.2642689651364",,
"CON_10125","SPOLETO V.LE MATTEOTTI","42.7279030300359","12.7355911343922",,
"CON_10126","TERNI VIA BRAMANTE","42.5723631589489","12.6348033954416",,
"CON_102","POLLENZA - FRAZ. CANTAGALLO","43.2474880491353","13.3179238062464",,
"CON_10217","APPIGNANO V.LE LEOPARDI","43.3610185363453","13.3443653965946",,
"CON_10218","APPIGNANO V.LE LEOPARDI","43.3608063507906","13.3443065051072",,
"CON_10219","APPIGNANO V.LE LEOPARDI","43.3598664640621","13.3425149220078",,
"CON_1022#F","PIEDIRIPA EX S.S. 485 BONTEMPI","43.2762493479978","13.5135497613416",,
"CON_10226","FOLIGNO VIA FLAMINIA","42.9478700265299","12.7185202142243",,
"CON_1023","CIVITANOVA MARCHE STADIO","43.29884627467","13.7372483122785",,
"CON_1023#F","PIEDIRIPA EX S.S. 485 BONTEMPI","43.2760950589018","13.5130095880692",,
"CON_1024#F","PIEDIRIPA EX S.S. 485 BIVIO ABB. S. CLAU","43.2749765047497","13.5178910316426",,
"CON_1025#F","PIEDIRIPA - EX S.S. 485 B. ABB. SAN CLAU","43.2743416928946","13.5183106821362",,
"CON_1028#F","CORRIDONIA - C.DA SAN CLAUDIO - S.P. SAN","43.2871328896284","13.5233787638401",,
"CON_103","POLLENZA CITTA'","43.2656869796241","13.3488126407219",,
"CON_1032#F","CORRIDONIA - S.CLAUDIO VIALE STAZIONE","43.2808683323108","13.5280348831233",,
"CON_1033#F","CORRIDONIA - SAN CLAUDIO VIALE STAZIONE","43.2810616969103","13.5273917040233",,
"CON_1036#F","PIEDIRIPA - EX S.S.485 (VILLA S. IOLANDA","43.273512166617","13.5305292346606",,
"CON_1037#F","PIEDIRIPA - EX S.S. 485 (VILLA S. IOLAND","43.2734406921643","13.5304642619099",,
"CON_1038#F","PIEDIRIPA - EX S.S. 485 CASE BELLESI","43.2737754915314","13.537955501728",,
"CON_10381","TOLENTINO SANTA LUCIA","43.2102893887045","13.278701509973",,
"CON_1039#F","PIEDIRIPA - EX S.S. 485 CASE BELLESI","43.273673053754","13.5370194208543",,
"CON_104","MACERATA - C.DA MORLA","43.2820153670156","13.3852659368034",,
"CON_1044#F","MORROVALLE - EX S.S. 485 B.M.S.GIUSTO I ","43.2674742907356","13.573947271398",,
"CON_1045#F","MORROVALLE - EX S.S. 485 B.M.S.GIUSTO","43.2679369482411","13.5769018656522",,
"CON_1046","MORROVALLE - TRODICA BIVIO M.SAN GIUSTO","43.2697913640627","13.5846507692833",,
"CON_1049","TRODICA V. BRODOLINI","43.2709021711912","13.5889840356925",,
"CON_105","MACERATA - SP.12 BIVIO PASSO TREIA","43.2858156635046","13.3952195233297",,
"CON_1050","TRODICA EX S.S. 485 BANCA MARCHE","43.2710970039365","13.5905836388891",,
"CON_1051","TRODICA EX S.S. 485 BANCA MARCHE","43.2713106333801","13.5905200152874",,
"CON_1052","TRODICA CENTRO","43.2737224914308","13.592814220786",,
"CON_105272","FALERONE - FONTE SANTA LUCIA","43.0985092325143","13.4421530337651",,
"CON_105273","FALERONE - FONTE SANTA LUCIA","43.0983745648449","13.4422440613358",,
"CON_1054#F","MORROVALLE - TRODICA EX S.S. 485 SCATOLI","43.2765021130664","13.6052400590206",,
"CON_1055#F","MORROVALLE - TRODICA EX S.S. 485 SCATOLI","43.2760494353724","13.6056005772281",,
"CON_1056#F","MORROVALLE - EX S.S. 485 MULINETTO","43.2774848124158","13.6115444682562",,
"CON_1057#F","MORROVALLE - EX S.S. 485 MULINETTO","43.2772780081843","13.6122730545197",,
"CON_10572","TOLENTINO EX S.S. 77 BIVIO CAPPUCCINI","43.2091719333699","13.2811518119598",,
"CON_10573","TOLENTINO EX S.S. 77 BIVIO CAPPUCCINI","43.209312820365","13.2812634958877",,
"CON_10579","TOLENTINO EX S.S. 77 RIF. AGIP","43.2118629130466","13.2982036302544",,
"CON_1058#F","MORROVALLE - EX S.S. 485","43.278342337395","13.6181448353722",,
"CON_10580","TOLENTINO EX S.S 77 RIF. AGIP","43.2118049887264","13.2985747198855",,
"CON_10581","TOLENTINO EX CHIESA S.S 77","43.2129983081044","13.3035810258515",,
"CON_10582","TOLENTINO - EX S.S. 77 - VIA S. PERTINI","43.2149244215211","13.3074775634303",,
"CON_10585","TOLENTINO - S.P. 53","43.2234161453783","13.3192911226962",,
"CON_10587"," TOLENTINO - S.P. 53 POLLENZA","43.2303232644585","13.323967669942",,
"CON_10589","TOLENTINO - S.P. 53","43.2357927096752","13.3231463998729",,
"CON_1059#F","MORROVALLE - EX S.S. 485","43.2780962222722","13.6191671936132",,
"CON_10591","TOLENTINO - S.P. 53","43.2397648681454","13.3196401755879",,
"ATMA_1","P.IV NOVEMBRE CAPOLINEA","43.6152564567157","13.5317540165593",,
"ATMA_10","1^ MARCONI-MANDRACCHIO","43.6125404303948","13.5043239847834",,
"ATMA_100","VIA GRAZIE","43.6030539273164","13.5110493968585",,
"ATMA_101","VIA GRAZIE","43.6024325888743","13.5134653097935",,
"CON_10592","TOLENTINO - S.P. 53","43.2400898794123","13.3199256017387",,
"CON_10597","POLLENZA - S.P. 12 CHIESA CANTAGALLO","43.2517142253757","13.3282222087744",,
"CON_10598","POLLENZA - S.P. 12 CHIESA CANTAGALLO","43.2514455461216","13.3285254898157",,
"CON_10599","POLLENZA - S.P. 12 VILLA CANTAGALLO","43.2542172499501","13.335005159215",,
"CON_106","PASSO TREIA - BAR","43.2835060017681","13.3299114341504",,
"CON_1060#F","MONTECOSARO - EX S.S. 485 PONTICELLO","43.2796256813328","13.623407890356",,
"CON_10600","POLLENZA - S.P. 12 VILLA CANTAGALLO","43.2539770669498","13.3353076345413",,
"CON_10603","POLLENZA - S.P. 12 BIVIO TREBBIO","43.2612419572617","13.3538637897521",,
"CON_10604","POLLENZA - S.P. 12","43.2610071008346","13.3542670501983",,
"ATMA_102","VIA GRAZIE","43.6000199489348","13.5159221158003",,
"ATMA_103","VIA PICCHI TANCREDI","43.5982527674589","13.5174708548125",,
"ATMA_104","VIA COLLEVERDE","43.597661132551","13.5187150060655",,
"ATMA_105","VIA FOSCOLO","43.5966695558563","13.519321615183",,
"ATMA_106","VIA FOSCOLO","43.5954594182484","13.5185565587071",,
"ATMA_107","VIA GIOBERTI","43.593706222308","13.5191719157896",,
"ATMA_109","VIA CASTELLANO","43.5952844125321","13.5236110885434",,
"ATMA_11","2^ MARCONI - PARCHEGGIO ARCHI","43.6098512818559","13.5028525251322",,
"ATMA_110","VIA CASTELLANO","43.594918172318","13.5273273274254",,
"ATMA_111","VIA CASTELLANO","43.5936020149188","13.5321041529762",,
"ATMA_112","VIA CASTELLANO","43.5925756567202","13.5358319082569",,
"ATMA_113","VIA CASTELLANO","43.5921494062629","13.5391108223625",,
"ATMA_114","VILLA ROMANA","43.5905586286114","13.5441031454218",,
"ATMA_115","VIA CASTELLANO","43.5922407986452","13.5390757829525",,
"ATMA_116","VIA CASTELLANO","43.5927365122899","13.5354910504367",,
"ATMA_117","VIA CASTELLANO","43.593665263159","13.5318409119446",,
"ATMA_118","VIA CASTELLANO","43.5949856008472","13.5273194884637",,
"ATMA_119","VIA CASTELLANO","43.5952298014029","13.5242628278608",,
"ATMA_12","3^ MARCONI","43.6080265930967","13.5009083749708",,
"ATMA_120","VIA CASTELLANO CAPOLINEA","43.5955014838889","13.5212488300411",,
"ATMA_121","VIA GIOBERTI","43.5938357896841","13.5191650215981",,
"ATMA_122","VIA FOSCOLO","43.595509555617","13.5187430173197",,
"ATMA_123","VIA FOSCOLO","43.5966166323411","13.5194065384207",,
"ATMA_124","VIA COLLEVERDE","43.5976156389093","13.5190258506641",,
"CON_1061#F","MONTECOSARO - EX S.S. 485 PONTICELLO","43.2791730081245","13.6238685759304",,
"CON_10616","TREIA - B.GO SAN MARCO VECCHIO","43.3011775392662","13.3148576693667",,
"CON_10617","TREIA - B.GO SAN MARCO VECCHIO","43.3014160565179","13.314851080046",,
"CON_1062","MONTECOSARO EX S.S. 485 IOMMI","43.2815407891095","13.6301702388975",,
"ATMA_125","VIA COLLEVERDE","43.598959187313","13.5177880207549",,
"ATMA_126","VIA COLLEVERDE","43.6005712645345","13.5160820181277",,
"ATMA_127","VIA GRAZIE","43.6020641377926","13.5143162873288",,
"ATMA_128","VIA GRAZIE","43.6032067061423","13.510336284572",,
"ATMA_129","CORSO C.ALBERTO","43.6049617885087","13.5069716563448",,
"ATMA_13","STAZIONE FS - ROSSELLI","43.6072869351022","13.4977205469916",,
"ATMA_130","CORSO C.ALBERTO","43.606593636335","13.5045869150009",,
"ATMA_131","CORSO C.ALBERTO","43.6077512434358","13.5027760648185",,
"ATMA_132","PIAZZA CAVOUR","43.6177660305962","13.5165669494884",,
"ATMA_133","VIA ISONZO","43.6146074614669","13.5205265993017",,
"ATMA_134","VIA ISONZO","43.6142316802076","13.5238446240275",,
"ATMA_135","VIA ISONZO","43.6138716148125","13.5259446632516",,
"ATMA_136","VIA RODI","43.6134370460139","13.5233187997489",,
"ATMA_137","BORGO RODI","43.6131480125459","13.5215072995709",,
"ATMA_138","VIA XXV APRILE","43.6119307308271","13.5206758767871",,
"ATMA_139","VIA GERVASONI","43.6097899736554","13.5204960135323",,
"ATMA_14","1^ G.BRUNO","43.6070674273065","13.5003746022303",,
"ATMA_140","VIA GERVASONI","43.6085559412122","13.5190671823594",,
"ATMA_141","VIA XXV APRILE","43.6099947451742","13.5189265438788",,
"ATMA_142","VIA XXV APRILE","43.6112030231153","13.5183671329901",,
"ATMA_143","VIA XXV APRILE","43.6099411174933","13.5168739415355",,
"ATMA_144","VIA XXV APRILE","43.6102035139789","13.5169728221009",,
"ATMA_145","VIA MICHELANGELO","43.6105496873617","13.5158955226084",,
"ATMA_146","V.MICHELANGELO (I.D'ARTE)","43.6093516157857","13.513428091153",,
"ATMA_147","VIA TIZIANO","43.6087095783548","13.5107952427454",,
"ATMA_148","VIA TIZIANO - REGIONE","43.6095292105617","13.5090897615413",,
"ATMA_149","VIA TIZIANO","43.6083707784811","13.5086351186574",,
"ATMA_15","2^ G.BRUNO","43.6053206484061","13.503980334518",,
"ATMA_150","VIA TIZIANO","43.607801626456","13.5098697191609",,
"ATMA_151","VIA DE GASPERI","43.6070524550294","13.5076578245386",,
"CON_10620","TREIA B.GO V. VENETO (CHIESA)","43.3125736376127","13.3076189117021",,
"CON_10621","TREIA B.GO V. VENETO","43.3125724518375","13.3075387933556",,
"CON_10622","TREIA - S.P. TREIESE (CERAMICA BARTOLONI","43.3258054169278","13.3161564177001",,
"CON_10623","TREIA - S.P. TREIESE (CERAMICA BARTOLONI","43.3263539480868","13.3164126049872",,
"CON_10624","TREIA - S.P. TREIESE","43.3297702188958","13.3191088915193",,
"CON_10625","TREIA - S.P. TREIESE","43.3300430467705","13.3192925506163",,
"CON_10628","TREIA - S.P. TREIESE LOC. SCHITO","43.3421221932335","13.328193499281",,
"CON_10630","S.P. TREIESE (INCR. SCHITO)","43.3496462320908","13.3313430162626",,
"CON_10631","S.P. TREIESE LOC. COLLEVAGO","43.3497665251261","13.3315648976926",,
"CON_10633","APPIGNANO VIA LEOPARDI","43.3597837290471","13.3427084531299",,
"CON_1066","MONTECOSARO SCALO","43.2863599407891","13.6465080287143",,
"ATMA_152","VIA DE GASPERI","43.6073587127312","13.5052556652581",,
"ATMA_153","STAZIONE F.S.","43.6074053888707","13.4981698749354",,
"ATMA_154","VIA DE GASPERI","43.6071672970391","13.5054214903572",,
"ATMA_155","VIA DE GASPERI","43.6071817963601","13.5085994472827",,
"ATMA_156","PIAZZALE EUROPA","43.6078464420028","13.509923134017",,
"ATMA_157","VIA TIZIANO","43.6084835739685","13.508654016071",,
"ATMA_158","VIA TIZIANO - REGIONE","43.6093931046768","13.509009481199",,
"ATMA_159","VIA TIZIANO","43.6083977875807","13.5113977213848",,
"ATMA_16","PIAZZA U.BASSI","43.6035746681489","13.5074836167215",,
"ATMA_160","VIA MICHELANGELO","43.6098431653241","13.514531230175",,
"ATMA_161","VIA MICHELANGELO","43.6105277905451","13.5162895003278",,
"ATMA_162","VIA XXV APRILE","43.6110557503276","13.5184667862442",,
"ATMA_163","VIA XXV APRILE","43.6100020205609","13.5187931547758",,
"ATMA_164","VIA GERVASONI","43.6077996671038","13.5180293887995",,
"ATMA_165","VIA GERVASONI","43.60832704081","13.5198162795451",,
"ATMA_166","VIA GERVASONI","43.6096099525097","13.5205004271159",,
"ATMA_167","VIA XXV APRILE","43.611897171569","13.5208656785638",,
"ATMA_168","BORGO RODI","43.61309420652","13.5215241083851",,
"ATMA_169","VIA RODI","43.6134466468178","13.5240621080215",,
"ATMA_17","G.BRUNO (ENEL)","43.6060342396073","13.502779319348",,
"ATMA_170","VIA ISONZO","43.6140168569199","13.5256870685753",,
"ATMA_171","VIA PIAVE","43.6151845343741","13.5216339921181",,
"CON_107","TREIA (BAR)","43.3128047395854","13.3101960781969",,
"CON_1070#F","CIVITANOVA MARCHE - EX S.S. 485 METANO","43.2907193320385","13.6558341201271",,
"CON_1071#F","CIVITANOVA MARCHE - EX S.S. 485 METANO","43.2902941223959","13.6558024503749",,
"CON_10710","CESSAPALOMBO - S.P. 88 - 3","43.1065289790484","13.250133590528",,
"CON_10711","CESSAPALOMBO - S.P. 88 - 3","43.1066979337791","13.2502885400255",,
"CON_10712","CESSAPALOMBO - S.P. 88 - 2","43.1059500545638","13.244085293374",,
"CON_10713","CESSAPALOMBO - S.P. 88 - 2","43.1058741840091","13.2438355313027",,
"CON_10716","CESSAPALOMBO - C.DA VALLE (INCR. LA VILL","43.1063920514697","13.2301118646562",,
"CON_10717","CESSAPALOMBO - C.DA VALLE (INCR. LA VILL","43.1064431088399","13.2299199069921",,
"CON_10719","CESSAPALOMBO - S.P. 88 - 1","43.1099299077326","13.2455415616186",,
"CON_1072#F","CIVITANOVA MARCHE EX S.S. 485 BOTTEGA","43.2931605149223","13.6635170579721",,
"CON_10720","CESSAPALOMBO - S.P. 88 - 1","43.1099227440216","13.2456615951572",,
"CON_10721","CESSAPALOMBO - S.P.88","43.1128382447497","13.2470009481511",,
"CON_10722","CESSAPALOMBO - S.P.88","43.1140493645479","13.2472951532073",,
"CON_10725","CESSAPALOMBO - S.S. 502","43.1202623556282","13.245535145121",,
"CON_10726","CESSAPALOMBO - S.S. 502","43.1200961024241","13.2458379821303",,
"CON_10729","CAMPOROTONDO - S.P. FIASTRONE","43.1273182986837","13.2625256273202",,
"CON_1073#F","CIVITANOVA MARCHE - EX S.S. 485 BOTTEGA","43.2930280314771","13.6639962923309",,
"CON_10730","CAMPOROTONDO - S.P. 49 (FIASTRONE)","43.1274095984933","13.2627724438129",,
"CON_10733","CAMPOROTONDO - S.P. 49 (FIASTRONE) - 1","43.1353958086822","13.265839846798",,
"CON_10734","CAMPOROTONDO - S.P. 49 (FIASTRONE) - 1","43.1355118928363","13.2659180956325",,
"CON_10735","CAMPOROTONDO - S.P. 49 (FIASTRONE) GALAS","43.1465805872747","13.2613617374662",,
"CON_10736","CAMPOROTONDO - S.P. 49 (FIASTRONE) GALAS","43.14675233276","13.2615733911875",,
"CON_10737","BELFORTE DEL CHIENTI - S.P. 49 (FIASTRON","43.150777286465","13.2560174213985",,
"CON_10738","BELFORTE DEL CHIENTI - S.P. 49 (FIASTRON","43.1510183775833","13.2561358235907",,
"CON_10739","BELFORTE DEL CHIENTI - S.P. 49 (FIASTRON","43.1608695836496","13.2472298559564",,
"CON_10740","BELFORTE DEL CHIENTI - S.P. 49 (FIASTRON","43.1610368227747","13.2475118451848",,
"CON_10744","CARDAROLA - S.S. 502 - 1","43.1284756527202","13.2326636320156",,
"CON_10745","CARDAROLA - S.S. 502 - 1","43.1286836048256","13.2327295746875",,
"CON_108","CHIESANUOVA (BIVIO)","43.3381269419602","13.3250945007148",,
"CON_10814","POLLENZA - S.P.12","43.2649575865103","13.3522292466846",,
"CON_10815","POLLENZA - S.P. 12","43.2651929678966","13.3521484874044",,
"CON_10818","POLLENZA - CONTRADA MORLA","43.2652707834864","13.356390230155",,
"CON_10819","POLLENZA - CONTRADA MORLA S.P.12","43.2652446198617","13.3569036530094",,
"CON_10822","POLLENZA - CONTRADA MORLA S.P.12","43.2715540461861","13.367589944407",,
"CON_10824","POLLENZA - S.P. 12 (MORLA - CAMPOMAGGIO)","43.2741566927724","13.370658963533",,
"CON_10825","POLLENZA - S.P. 12 (MORLA - CAMPOMAGGIO)","43.2741515742161","13.3711523493256",,
"CON_10826","POLLENZA - C.DA CAMPOMAGGIO","43.2790939798198","13.3782406511858",,
"CON_10827","POLLENZA - C.DA CAMPOMAGGIO - S.P. 12","43.2788313802103","13.3784104542031",,
"CON_10828","POLLENZA - CONTRADA CAMPOMAGGIO","43.2794187240276","13.3805167866276",,
"CON_10829","POLLENZA - C.DA CAMPOMAGGIO - S.P. 12","43.2791984508214","13.3806618078439",,
"CON_10831","MACERATA - C.DA MORLA","43.2821472569393","13.3850716593356",,
"CON_10832","MACERATA - CONTRADA MORLA","43.2839234341395","13.3888339164354",,
"CON_10833","MACERATA - CONTRADA MORLA - MRL/104*","43.2837356755081","13.389017377934",,
"CON_10856","TOLENTINO FRONTE EX CHIESA SP 77","43.2131742839535","13.30340937115",,
"CON_10885","POLLENZA - EX S.S. 77 KM 81,6","43.2480275468453","13.3912577652374",,
"ATMA_172","VIA PIAVE","43.6157346245268","13.5196128703468",,
"ATMA_173","VIA MONTEBELLO","43.6157865532417","13.5135545828441",,
"ATMA_174","VIA TORRIONI","43.6158805201885","13.5103982787146",,
"ATMA_175","SANGALLO - CAPODIMONTE","43.6141793485307","13.5073359487985",,
"ATMA_176","VIA CIRCONVALLAZIONE","43.6115536172161","13.5107033691577",,
"ATMA_177","VIA CIRCONVALLAZIONE","43.610756316433","13.5127429154291",,
"ATMA_178","VIA SCANDALI","43.6113584090945","13.5154233260428",,
"ATMA_179","VIA SCANDALI","43.6116583387006","13.518414815285",,
"ATMA_18","STAZIONE FS-ROSSELLI","43.607201792224","13.4977505463783",,
"ATMA_180","VIA XXV APRILE","43.6099929260297","13.5194811160469",,
"ATMA_181","VIA GENTILONI","43.6102004794009","13.522648304091",,
"ATMA_182","VIA ANGELINI","43.6105780677671","13.5236489914695",,
"ATMA_183","VIA ANGELINI","43.6104271633668","13.5280052917453",,
"ATMA_184","VIA SALMONI","43.6113211980161","13.5299599992321",,
"ATMA_185","VIA DEL CONERO","43.6119876373026","13.5303217221812",,
"ATMA_186","VIA ISONZO","43.6127050161641","13.5304436619528",,
"CON_10888","POLLENZA EX S.S. 77 DISTRIBUTORE","43.2459385944137","13.3853632472488",,
"CON_10893","TOLENTINO - EX S.S. 77 ZONA RANCIA","43.2272264622773","13.342819383383",,
"CON_10895","TOLENTINO - EX S.S. 77 - VIA S. PERTINI ","43.2229954860903","13.3335082417551",,
"CON_10896","TOLENTINO - EX. S.. 77- VIA S. PERTINI Z","43.2232008467098","13.3333596935179",,
"CON_10897","TOLENTINO - EX S.S: 77","43.2209421214975","13.3244791544649",,
"CON_10898","TOLENTINO - EX S.S. 77 INCR. STAB. LOI","43.2206257319291","13.3229702056707",,
"CON_109","APPIGNANO (BAR)","43.3637530661857","13.3469568721057",,
"CON_10900","TOLENTINO - CISTERNA EX S.S. 77","43.2196160253064","13.3150747138829",,
"CON_10909","CESSAPALOMBO - C.DA LA VILLA (INCROCIO)","43.1005347558614","13.2256011607469",,
"CON_10917","TOLENTINO - EX S.S 77 - 3","43.1984794411592","13.2695370871689",,
"CON_10918","TOLENTINO - EX S.S 77 - 3","43.1983910386718","13.2691213387155",,
"CON_10921","TOLENTINO - EX S.S. 77 - 2","43.1853244690808","13.2613268087616",,
"CON_10922","TOLENTINO - EX S.S. 77 - 2","43.1854159047135","13.2607602982492",,
"CON_10924","BELFORTE DI CHIENTI S.S 77 F. MORETO","43.1776992645899","13.2519935859371",,
"CON_10932","S.P. CALDAROLA -BELFORTE","43.1574623505399","13.2386408651528",,
"CON_10933","S.P. CALDAROLA -BELFORTE","43.1574361573589","13.2384017742487",,
"CON_10934","S.P. CALDAROLA - BELFORTE - 1","43.152374791449","13.2357185041012",,
"ATMA_187","VIA ISONZO","43.6133028964135","13.5282759280918",,
"ATMA_188","PIAZZA CAVOUR","43.616715595395","13.515759345023",,
"ATMA_189","P.ZZA CAVOUR  VIA VECCHINI","43.6167920421542","13.518320351783",,
"ATMA_19","1^ MARCONI","43.6080139943951","13.5012178499831",,
"ATMA_190","PIAZZA CAVOUR","43.6173589312728","13.5160719371514",,
"ATMA_191","VIA DEL CONERO","43.5893367489007","13.5520741931823",,
"ATMA_192","VIA ISONZO","43.6132650974421","13.5281374361005",,
"ATMA_193","VIA ISONZO","43.6126502928371","13.5303892297071",,
"ATMA_194","VIA DEL CONERO","43.6118162172405","13.530644992686",,
"ATMA_195","VIA DEL CONERO","43.6101728506618","13.5327358371223",,
"ATMA_196","VIA DEL CONERO","43.6059161903214","13.5353639588203",,
"ATMA_197","PIETRALACROCE CENTRO","43.602948157193","13.5401938297009",,
"ATMA_198","PIETRALACROCE","43.6017552162178","13.5423165882313",,
"ATMA_199","PIETRALACROCE CAPOLINEA","43.5988563811159","13.5451772972147",,
"ATMA_2","1^ VITTORIA","43.6156085311615","13.5278008098739",,
"CON_10935","S.P. CALDAROLA -BELFORTE - 1","43.1523986168101","13.2355118161369",,
"CON_10936","S.P. CALDAROLA - BELFORTE  - 2","43.1488928022315","13.2326888566856",,
"CON_10937","S.P. CALDAROLA - BELFORTE - 2","43.1488483112749","13.2324318821883",,
"CON_10938","BELFORTE DI CHIENTI EX S.S. 77 - 1","43.1542642449044","13.2234050830016",,
"CON_10939","BELFORTE DI CHIENTI - EX S.S. 77 - 1","43.1544380326682","13.2229993685784",,
"CON_10940","SERRAPETRONA - EX S.S. 77 - BORGIANO","43.1497949944864","13.2150715567049",,
"CON_10941","SERRAPETRONA - EX S.S. 77 - BORGIANO","43.1493731239317","13.2141629102305",,
"CON_10944","CARDAROLA - S.S. 502","43.1422094496103","13.2133998541264",,
"CON_10945","CARDAROLA - S.S. 502","43.1419972155317","13.213391353836",,
"CON_10953","CARDAROLA - EX S.S. 77 VALCIMARRA","43.138090444746","13.1692267093684",,
"CON_10955","CARDAROLA - BISTOCCO","43.1374950843577","13.1605573436504",,
"CON_10958","CAMERINO - LOC. CAMPOLARZO","43.1362293097375","13.1491562232403",,
"CON_10959","CAMERINO - LOC. CAMPOLARZO","43.1360104724718","13.1492991927972",,
"CON_110","MONTEFANO - LOCALIT OSTERIA NUOVA","43.3916275646441","13.3869545559273",,
"CON_11001","MONTEFANO - LOCALIT OSTERIA NUOVA","43.391745219101","13.3868675119748",,
"ATMA_20","2^ MARCONI - PARCHEGGIO ARCHI","43.6097943672785","13.5029239498793",,
"ATMA_200","VIA DEL CONERO - CASACCIA","43.5967540586466","13.5490809259681",,
"ATMA_2000","MOIE (EX FIMEA).","43.5022885159496","13.1226914687485",,
"ATMA_20001","ANCONA (CAPOLINEA)","43.6174933335527","13.5178718443229",,
"ATMA_20002","ANCONA (PIAZZA ROMA)","43.6174163983553","13.5128730778961",,
"ATMA_20003","ANCONA (P.ZZA KENNEDY)","43.6186361740099","13.5093976301629",,
"ATMA_20004","ANCONA (TRAIANO)","43.6183164275797","13.5086991077616",,
"ATMA_20005","ANCONA (ARCHI)","43.6118331493278","13.5038405676627",,
"ATMA_20006","ANCONA (STAZIONE F.S.)","43.6072727824025","13.497671334842",,
"ATMA_20007","PALOMBELLA","43.6060936722821","13.4908671220367",,
"ATMA_20008","PALOMBELLA  EX ANGELINI)","43.6059689737366","13.4868834869639",,
"ATMA_20009","PALOMBELLA (DISCO)","43.6062570266431","13.4834811587064",,
"ATMA_2001","MOIE (EX FIMEA)","43.5021858715949","13.1224629010546",,
"ATMA_20010","BARACCOLA  (GLOBO)","43.5528308440357","13.5111260712405",,
"ATMA_20011","TORRETTE (CENTRO)","43.6099871175242","13.4554256378794",,
"ATMA_20012","TORRETTE (I.T.I.S.)","43.6111927172911","13.4510328279951",,
"CON_11010","CAMERINO - LOCALIT POLVERINA","43.0912548630641","13.117361852664",,
"CON_11030","CORRIDONIA - S.P. 34","43.2130172825386","13.5127422106147",,
"CON_11031","CORRIDONIA -  S.P. 34","43.2128162962756","13.5132259036336",,
"CON_11036","MUCCIA EX S.S. 77","43.0804668773553","13.0405169709612",,
"CON_11037","MUCCIA EX S.S. 77","43.0806692108869","13.0402416198725",,
"CON_11040","SERRAVALLE LOCALIT BAVARETO","43.0758190273422","12.9726526936091",,
"CON_11042","SERRAVALLE EX S.S. 77","43.0729870850526","12.9535207458156",,
"CON_11043","SERRAVALLE EX S.S. 77","43.0731651290058","12.9533595544022",,
"CON_11044","CASTELLO EX S.S. 77","43.0655930947152","12.9404727601636",,
"CON_11045","CASTELLO EX S.S. 77","43.065862299866","12.9404710884468",,
"CON_11046","TAVERNE EX S.S. 77","43.0549520773106","12.9299750807326",,
"ATMA_20013","COLLEAMENO M","43.6124699370495","13.4462910178528",,
"ATMA_20014","VILLA ADRIA","43.614383090376","13.4393390980269",,
"ATMA_20015","COLLEMARINO (VIA L. DA VINCI)","43.6154207839407","13.4321349839914",,
"ATMA_20016","COLLEMARINO (PIAZZA)","43.6130160253776","13.4282802759585",,
"ATMA_20017","COLLEMARINO (VIA REDI)","43.612402310835","13.4239249333026",,
"ATMA_20018","COLLEMARINO (CAPOLINEA)","43.6128771538638","13.4283303643152",,
"ATMA_20019","COLLEMARINO (SCUOLE).","43.6143920740979","13.4314448072851",,
"ATMA_2002","POZZETTO.L","43.5067934450646","13.1215496805347",,
"ATMA_20020","PALOMBINA N. (STAZIONE).","43.6172620096476","13.428327672933",,
"ATMA_20021","PALOMBINA N. (IST. VISENTINI).","43.6196847806698","13.4224984092541",,
"ATMA_20022","PALOMBINA V. (CENTRO).","43.6222092383481","13.4159068636145",,
"ATMA_20023","FALCONARA (CARAVELLA).","43.6233522671449","13.4132771200976",,
"ATMA_20024","FALCONARA (DISCO).","43.6259381267951","13.4072533284087",,
"ATMA_20025","FALCONARA (PIATTAFORMA).","43.6275416717574","13.403442821463",,
"ATMA_20026","FALCONARA (STAZIONE F.S)R","43.6301851973916","13.3973949600512",,
"ATMA_20027","FALCONARA (STAZIONE F.S)A","43.6301931374061","13.3969980836328",,
"ATMA_20028","FALCONARA (PATTAFORMA)","43.6273631755231","13.4035560051219",,
"ATMA_20029","FALCONARA (DISCO)","43.6258498154826","13.4070542434903",,
"ATMA_2003","POZZETTO","43.5067594486792","13.1217827866507",,
"ATMA_20030","FALCONARA (CARAVELLA)","43.6232757898007","13.4129568782327",,
"CON_11047","TAVERNE EX S.S. 77","43.0550008472062","12.9296412804678",,
"CON_11048","SERRAVALLLE LOCALIT CASALI","43.052569095221","12.9204643307216",,
"CON_1108#F","MACERATA - S.P. VERGINI BIVIO MORICA (AP","43.2962269991902","13.4824548006569",,
"CON_1109#F","MACERATA - S.P. VERGINI BIVIO MORICA (AP","43.2963125311476","13.4826250889815",,
"CON_11097","MACINA DI MOGLIANO","43.2081560175052","13.5169090239652",,
"CON_111","MONTEFANO","43.4110742591797","13.4383665668233",,
"CON_1110#F","MACERATA - S.P. VERGINI EX SCUOLE (APM)","43.2990189768336","13.4892940122305",,
"CON_11101","CORRIDONIA - S.P. 34","43.213660315626","13.5120529316598",,
"CON_11102","CORRIDONIA - S.P. 34 - 1","43.2185286854234","13.5133229761564",,
"CON_11103","CORRIDONIA - S.P. 34 - 1","43.2181444007665","13.5140117508266",,
"CON_11106","CORRIDONIA - S.P. 34 - 2","43.2343983795143","13.5028566557871",,
"CON_11107","CORRIDONIA - S.P. 34 - 2","43.2346443315766","13.5035168173623",,
"CON_11108","CORRIDONIA S.P. 34 IPPODROMO","43.2364627091012","13.5030597982891",,
"CON_11109","CORRIDONIA S.P. 34 IPPODROMO","43.2365759498152","13.5033914952031",,
"CON_1111#F","MACERATA - S.P. VERGINI EX SCUOLE (APM)","43.2991776307077","13.4893476320589",,
"CON_11110","CORRIDONIA - S.P. 34","43.2137773831166","13.5116632825187",,
"CON_11112","CORRIDONIA S.P. 34 CAR. VER CAR","43.2407264773833","13.5031626573771",,
"ATMA_20031","PALOMBINA V. (CENTRO)","43.6218132677015","13.4165710502403",,
"ATMA_20032","PALOMBINA (IST. VISENTINI)","43.619568242717","13.4225355392683",,
"ATMA_20033","PALOMBINA N. (UFF. POSTALE).","43.617983453546","13.4257930392173",,
"ATMA_20034","PALOMBINA N. (STAZIONE).","43.6166493001541","13.4299330396266",,
"ATMA_20035","COLLEMARINO (VIA RICCI FEFe)","43.6120044369623","13.4342826991742",,
"ATMA_20036","VILLA ADRIA","43.6142224730664","13.4394454909814",,
"ATMA_20037","TORRETTE (COLLE AMENO)","43.6121224406128","13.4472225570844",,
"ATMA_20038","TORRETTE (I.T.I.S)","43.6109025738829","13.4515483415338",,
"ATMA_20039","TORRETTE (CENTRO)","43.6099037024434","13.4555826684767",,
"ATMA_2004","BORGO LORETO (CHIESA).","43.4903266458703","13.094356978833",,
"ATMA_20040","TORRETTE - LIDL","43.6090629263873","13.4606691988875",,
"ATMA_20041","PALOMBELLA (DISCO)","43.6060661304191","13.4843626087929",,
"ATMA_20042","PALOMBELLA (EX ANGELINI)","43.6058586347773","13.4870504316072",,
"ATMA_20043","PALOMBELLA","43.6060665272057","13.4922215024783",,
"CON_11113","CORRIDONIA S.P. 34 CAR. VER CAR","43.2407890514998","13.5033947083425",,
"CON_11114","CORRIDONIA S.P. 34 MULINO SAGRETTI","43.2432032871278","13.5045600107298",,
"CON_11115","CORRIDONIA S.P. 34 MULINO SAGRETTI","43.243171100002","13.5047538304798",,
"CON_1112#F","MACERATA - S.P. VERGINI VILLA PEROGIO (A","43.2996537719659","13.4939838149588",,
"ATMA_20044","ANCONA (STAZIONE F.S.)","43.6070753688986","13.4980818079145",,
"ATMA_20045","ANCONA (VIA MARCONI GAS)","43.609944011165","13.5030063594788",,
"ATMA_20046","ANCONA (ARCHI)","43.6135648977379","13.505101927716",,
"ATMA_20047","ANCONA (P. KENNEDY)","43.618554801477","13.5093717555521",,
"ATMA_20048","ANCONA (P.ZZA ROMA)","43.6172398205189","13.513176725446",,
"ATMA_20049","FALCONARA (SOTTOPASSAGGIO).","43.6320724275212","13.3929720481551",,
"ATMA_2005","BORGO LORETO (CHIESA)","43.4898358826806","13.0944690748468",,
"ATMA_20050","VILLANOVA","43.6335617508954","13.3868425798594",,
"ATMA_20051","FALCONARA (RAFFINERIA)","43.6368184155093","13.3772369059669",,
"ATMA_20052","FALCONARA (FIUME ESINO)","43.6387724361506","13.3730069501465",,
"ATMA_20053","FALCONARA (FIUME ESINO HOTEL)","43.6423686094221","13.3653748198641",,
"ATMA_20054","PALOMBINA V. (DISTRIBUTORE)","43.6210450590482","13.4189646516647",,
"ATMA_20055","FALCONARA (OFFICINE).","43.6457476309529","13.3567650712427",,
"ATMA_20056","FALCONARA (EX MONTEDISON).","43.6483138510006","13.349900164545",,
"ATMA_20057","MARINA (ROSITA).","43.6499001462074","13.3447200946068",,
"ATMA_20058","MARINA (PISTA PATTINAGGIO).","43.6483659257921","13.3432308977526",,
"ATMA_20059","MARINA (VIA PLATANI).","43.649637065065","13.3405485960337",,
"ATMA_2006","CASTELPLANIO (INCR. POGGIO)","43.4857452787682","13.0870946622635",,
"ATMA_20061","MONTEMARCIANO (VIA SELVETTINA)","43.6391602239238","13.3067876079968",,
"ATMA_20062","MARINA (CAPOLINEA)","43.6493600829266","13.340695720685",,
"ATMA_20063","MARINA (FORNACI).","43.6464221865774","13.3405131324525",,
"ATMA_20064","MARINA (PONTE AUTOSTRADA).","43.6425396284653","13.3329578750976",,
"ATMA_20065","GABELLA (INC. VIA IMBRECCIATA)","43.6378792039134","13.3259328655891",,
"ATMA_20066","GABELLA (SEMAFORO).","43.6347117572871","13.3219491231281",,
"ATMA_20067","GABELLA (IMPIANTI SPORTIVI).","43.6359313753327","13.3185525030837",,
"ATMA_20068","MONTEMARCIANO (VILLA).","43.6379420551403","13.3141604426118",,
"CON_11120","CORRIDONIA CHIESA DI SANTA CROCE","43.2484563985708","13.5124916067335",,
"CON_11121","CORRIDONIA CHIESA DI SANTA CROCE","43.2484692319389","13.5123062274127",,
"CON_1113#F","MACERATA - S.P. VERGINI  VILLA PEROGIO (","43.2992839144909","13.4941805088323",,
"CON_1114#F","MACERATA - S.P. VERGINI B. CERVARE (APM)","43.3006701112022","13.5002098298493",,
"CON_1115#F","MACERATA - S.P. VERGINI B. CERVARE (APM)","43.3002131199968","13.5002914116603",,
"CON_11156","CORRIDONIA - S.P. 34 Z. PONTE CHIENTI","43.2692655519179","13.4856137572066",,
"CON_11157","CORRIDONIA - S.P. 34 Z. PONTE CHIENTI","43.2693714484249","13.4856841531616",,
"CON_1116#F","MACERATA - S.P. VERGINI  B. SEMINARIO LA","43.2992872497033","13.5034294469065",,
"CON_11165","MONTE SAN GIUSTO S.P.46 FERMANA","43.2342528996439","13.5965545690183",,
"CON_1117#F","MACERATA - S.P. VERGINI B. SEMINARIO LA ","43.2997648691571","13.5035334078441",,
"CON_11172","MOGLIANO - S.P. 61 - 3","43.1939582836408","13.5057064172485",,
"CON_11173","MONTE SAN GIUSTO - S.P. MACINA","43.2352336323443","13.5827948302663",,
"CON_11174","MONTE SAN GIUSTO - S.P. MACINA","43.2354663187588","13.5825747780512",,
"CON_11175","MONTE SAN GIUSTO S.P. 33 INCROCIO RENZI","43.2317240653762","13.5731508012802",,
"CON_11176","MONTE SAN GIUSTO S.P. 33 INCROCIO RENZI","43.2320145848891","13.5732344378243",,
"CON_11177","MONTE SAN GIUSTO S.P. 33","43.2354865428724","13.5645998600298",,
"ATMA_20069","MONTEMARCIANO (VIA M. SPIRELLO)","43.6337029727813","13.3045384380035",,
"ATMA_2007","CASTELPLANIO (INCR. POGGIO)","43.4855771353443","13.0868669947981",,
"ATMA_20070","ALBERICI  (CIMITERO)","43.6258683341059","13.3017219696325",,
"ATMA_20071","CASSIANO (ENEL)","43.6281327108296","13.2950638796613",,
"ATMA_20072","CASSIANO (CENTRO)","43.6302472424728","13.2913547765957",,
"ATMA_20073","CROGNALETTO (CENTRO)","43.6311886298813","13.286576106914",,
"ATMA_20074","S.VENERANDA (BIVIO)","43.640826575931","13.2883354210777",,
"ATMA_20075","S.VENERANDA (BIVIO)","43.6428056894665","13.2850971788348",,
"ATMA_20076","S.VENERANDA (BIVIO)","43.6426525403688","13.2856916965546",,
"ATMA_20077","S.VENERANDA (BIVIO)","43.6405639504593","13.2879337483956",,
"ATMA_20078","CROGNALETTO (CENTRO)","43.6311546732378","13.2867134273882",,
"ATMA_20079","CASSIANO (CENTRO)","43.6298962422389","13.2922683692379",,
"ATMA_2008","CASTELPLANIO (SASSAROLI)","43.4886436684208","13.0869389802672",,
"ATMA_20080","CASSIANO (ENEL)","43.6280422483163","13.295035449009",,
"CON_11178","MONTE SAN GIUSTO S.P. 33","43.2357978777604","13.5648722250384",,
"CON_11179","MONTE SAN GIUSTO S.P. 33  - 1","43.2395411720404","13.5612934588751",,
"CON_1118#F","MACERATA - CONTRADA VALLE","43.2980152728727","13.517728381684",,
"CON_11180","MONTE SAN GIUSTO S.P. 33  - 1","43.2398414344176","13.5613621260303",,
"CON_11181","CORRIDONIA - S.P. 33 P. CREMONE","43.2427011339555","13.5498131954583",,
"CON_11182","CORRIDONIA - S.P. 33 P. CREMONE","43.2430137606331","13.5498899531375",,
"CON_11183","CORRIDONIA - S.P. 33 - 2","43.2481179947242","13.5491928846987",,
"CON_11184","CORRIDONIA - S.P. 33 - 2","43.2483103335209","13.5495886191762",,
"CON_11185","CORRIDONIA - S.P. 33 - 3","43.252347375814","13.54563580912",,
"CON_11186","CORRIDONIA - S.P. 33 - 3","43.2527236430495","13.5454020205356",,
"CON_11187","CORRIDONIA - S.P. 33 SCUOLE CIGLIANO","43.2551387449083","13.5423100386685",,
"CON_11188","CORRIDONIA - S.P. 33 SCUOLE CIGLIANO","43.255373998906","13.5423880632386",,
"CON_11189","CORRIDONIA - S.P. 33 - 4","43.2555908358327","13.5369311760889",,
"CON_1119","CORRIDONIA S. MARIA - ENAOLI","43.245889335001","13.5080986590122",,
"CON_1119#F","MACERATA - S.P. VERGINI (AZ. LUCANGELI)","43.2983154234197","13.517748433053",,
"CON_11190","CORRIDONIA - S.P. 33 - 4","43.2557225296627","13.5366773934975",,
"CON_11194","S.P. 28 CORRIDONIA-COLBUCCARO - 1","43.2545170007623","13.4874831623834",,
"CON_11195","S.P. 28 CORRIDONIA-COLBUCCARO","43.2569514527063","13.4734586254801",,
"CON_11196","S.P. 28 CORRIDONIA-COLBUCCARO","43.2574092566177","13.4732199096264",,
"ATMA_20081","ALBERICI (INCROCIO)","43.6236240894834","13.2994488178698",,
"ATMA_20082","ALBERICI (CIMITERO)","43.626119656171","13.3019720869921",,
"ATMA_20083","MONTEMARCIANO (VIA M. SPIRELLO)","43.63341570559","13.3045961019986",,
"ATMA_20084","COLLEMARINO CAVALCAVIA","43.6155460582831","13.4346669312183",,
"ATMA_20085","MONTEMARCIANO (CONSORZIO)","43.6402633928544","13.3070442496001",,
"ATMA_20089","GABELLA (IMPIANTI SPORTIVI)","43.6353052244997","13.3197507639943",,
"ATMA_2009","CASTELPLANIO (SASSAROLI)","43.4886182637098","13.0867122356398",,
"ATMA_20090","GABELLA  (SEMAFORO)","43.6346277567873","13.3220537337766",,
"ATMA_20091","GABELLA (CANILE)","43.6377574761756","13.3258593825671",,
"ATMA_20092","MARINA (PONTE AUTOSTRADA)","43.642502878403","13.3332161564107",,
"ATMA_20093","MARINA (FORNACI)","43.6465370721449","13.3409842359813",,
"CON_11199","CORRIDONIA - PASSO DEL BIDOLLO (BIVIO CO","43.2499028527256","13.4288430845945",,
"CON_112","RECANATI - COLLE S.MARIA (B.PIN.)","43.3980123139708","13.4941462197116",,
"CON_1120#F","MACERATA - S.P. VERGINI B. SAN CLAUDIO","43.2925054587129","13.5291387056748",,
"CON_1121#F","MACERATA - S.P. VERGINI B. SAN CLAUDIO","43.2923667293379","13.5297186060257",,
"CON_1122#F","MACERATA - S.P. VERGINI FOSSO TRODICA","43.2966743189835","13.5276904068888",,
"CON_1123#F","MACERATA - S.P. VERGINI FOSSO TRODICA","43.2970765776349","13.5281791540371",,
"CON_11231","PETRIOLO - S.P.1 ABB. FIASTRA","43.2183992690191","13.4472988243887",,
"CON_11235","MOGLIANO S.P. 1","43.1878919157051","13.4851806219603",,
"CON_11236","MOGLIANO - INCR. PISTOLESI S.P. 1","43.1893281446411","13.4789053769139",,
"CON_11237","MOGLIANO - INCR. PISTOLESI S.P. 1","43.1888975894018","13.4784338692535",,
"CON_11239","MOGLIANO ZAZZARETTA","43.1919784460555","13.4724295881633",,
"CON_1124","PETRIOLO - S.P. 1 - 2","43.2121422718144","13.4578620047571",,
"ATMA_20095","MARINA (BANCA MARCHE)","43.6490439233382","13.3443499255108",,
"ATMA_20096","FALCONARA (EX MONTEDISON)","43.6479811599818","13.3501808221372",,
"ATMA_20097","FALCONARA (OFFICINE).","43.6465059433945","13.3540252636612",,
"ATMA_20098","PALOMBINA V. (DISTRIBUTORE)","43.6209244076846","13.4190297834958",,
"ATMA_20099","FALCONARA (HOTEL)","43.6421199477944","13.3653009749731",,
"ATMA_201","VIA DEL CONERO","43.5958868060016","13.5516941214691",,
"ATMA_2010","CASTELPLANIO (CURVE).","43.4921716409352","13.0884499631274",,
"ATMA_20100","FALCONARA  (RAFFINERIA)","43.6374121078777","13.3756762246514",,
"ATMA_20102","FALCONARA (VILLANOVA)","43.6334370088177","13.3866165828993",,
"ATMA_20103","FALCONARA (SOTTOPASSAGGIO)","43.6318029215483","13.393335619598",,
"ATMA_20104","VIA DEL MARE","43.607058776512","13.2102903990319",,
"ATMA_20105","VIA DEL MARE","43.6070208530273","13.2106285581572",,
"ATMA_20106","S.VENERANDA (INCROCIO).","43.6398771379412","13.2983153870034",,
"ATMA_20107","S.VENERANDA (CHIESA).","43.6424475498127","13.2780460162918",,
"ATMA_20108","CASTELLARO.","43.6434525476519","13.2743559429382",,
"ATMA_20109","CASTELLARO (CHIESA).","43.6466946743441","13.2670275821845",,
"ATMA_2011","CASTELPLANIO (CURVE)","43.4918325517084","13.0884606616363",,
"ATMA_20110","S.SILVESTRO (SETA).","43.6465763479929","13.2582964223269",,
"ATMA_20111","S.SILVESTRO","43.6521398729278","13.2491683505183",,
"CON_1124#F","MORROVALLE - S.P. VERGINI - 3","43.3028322009143","13.5434045447487",,
"CON_11240","MOGLIANO - S.P. 1 - 4","43.1984862774679","13.4704727847308",,
"CON_11241","MOGLIANO - S.P. 1 - 4","43.1988595024711","13.470867226844",,
"CON_11242","MOGLIANO - S.P. 1 - 3","43.2020865949749","13.4671063056371",,
"CON_11243","MOGLIANO - S.P. 1 - 3","43.2025376150263","13.4669694366583",,
"CON_11245","PETRIOLO - S.P. 1 - 2","43.2120044852538","13.4585006119817",,
"CON_11246","PETRIOLO - S.P. 1 - 1","43.2139015573585","13.4587149854673",,
"CON_11247","PETRIOLO - S.P. 1 - 1","43.2142337138289","13.4582298685337",,
"CON_11248","PETRIOLO - S.P. 1","43.2153746588374","13.457931019012",,
"CON_11249","PETRIOLO - S.P. 1","43.2155010801791","13.4581673515676",,
"CON_1125#F","MORROVALLE - S.P. VERGINI - 3","43.302804669675","13.5438538570751",,
"CON_11250","PETRIOLO S.P.36","43.2189108081364","13.4597594875964",,
"CON_11251","PETRIOLO S.P. 36","43.2185851264716","13.4599234098435",,
"CON_11254","PETRIOLO VIA DELL'ARTIGIANATO TO.ME","43.2252216724586","13.4648108128205",,
"CON_11255","PETRIOLO VIA DELL'ARTIGIANATO TO.ME 2","43.2252799795313","13.4641423448858",,
"CON_11256","PETRIOLO VIA DELL'ARTIGIANATO 1","43.2256130604173","13.4787379998619",,
"CON_11257","PETRIOLO VIA DELL'ARTIGIANATO 2","43.2255282331947","13.4786238829961",,
"CON_11258","PETROLIO CASTELLETTA","43.2309473690716","13.4797992018382",,
"CON_1126#F","MORROVALLE - B. S. LUCIA S.P. VERGINI","43.3083132351536","13.5488145105017",,
"CON_11260","CORRIDONIA - S.P. 36 - 1","43.2366189307897","13.4878583088332",,
"CON_11261","CORRIDONIA - S.P. 36 - 1","43.2365536301618","13.4881797866568",,
"CON_11262","CORRIDONIA - S.P. 36","43.2391950206238","13.4965763586964",,
"CON_11263","CORRIDONIA - S.P. 36","43.23889318404","13.4974700270985",,
"CON_11264","MOGLIANO S.P. 61 CIMITERO","43.187431337996","13.4878295751788",,
"CON_11265","MOGLIANO S.P. 61","43.1877976063189","13.4915395118553",,
"CON_11266","MOGLIANO S.P. 61","43.1874055068632","13.4928998153771",,
"CON_11267","MOGLIANO S.P. 61 - 1","43.1879272711256","13.496777545478",,
"CON_11268","MOGLIANO S.P. 61 - 1","43.1876285062137","13.4973789917755",,
"ATMA_20112","S.SILVESTRO","43.6561264995919","13.2418797034459",,
"ATMA_20113","S. SILVESTRO (FRECCIA AZZURRA)","43.6564375838266","13.2375835481033",,
"ATMA_20114","S.SILVESTRO (CHIESA)","43.6548568910286","13.2273619125878",,
"CON_11269","MOGLIANO - S.P. 61 - 2","43.1914229538005","13.5030504093233",,
"CON_1127#F","MORROVALLE - B. S. LUCIA S.P. VERGINI","43.3082615021764","13.5493948405608",,
"CON_11270","MOGLIANO - S.P. 61 - 2","43.1911953006366","13.5033558849585",,
"CON_11271","MOGLIANO - S.P. 61 - 3","43.1934268602445","13.5053581137455",,
"CON_11273","MOGLIANO - S.P. 61 - 4","43.1985144435364","13.5076326750975",,
"CON_11274","MOGLIANO - S.P. 61 - 4","43.198534158583","13.5081299928059",,
"CON_11275","Z. IND. MOGLIANO S.P. 61","43.2031688446754","13.5154986754983",,
"CON_11276","Z. IND. MOGLIANO S.P. 61","43.2031723623323","13.5159869607312",,
"CON_1128#F","MORROVALLE - SANTA LUCIA S.P. VERGINI - ","43.3121566323273","13.5492156215922",,
"CON_11289#F","PIEDIRIPA - S.P. STAZIONE S. CLAUDIO","43.2745949993093","13.526384077825",,
"CON_1129#F","MORROVALLE - SANTA LUCIA S.P. VERGINI - ","43.3124506595877","13.5496925819494",,
"CON_11290#F","PIEDIRIPA - S.P. STAZIONE S. CLAUDIO","43.2744323354876","13.5262744317217",,
"CON_11291#F","PIEDIRIPA - S.P. STAZIONE SAN CLAUDIO","43.284206425674","13.5306733867283",,
"CON_11292#F","PIEDIRIPA -S.P. STAZIONE SAN CLAUDIO","43.2840541849817","13.529877868143",,
"ATMA_20115","S.SILVESTRO (INC. ROMANA)","43.6534956234387","13.2179899587162",,
"ATMA_20116","PANORAMICA (BIVIO)","43.6562531605461","13.2152576541973",,
"ATMA_20117","MONTEMARCIANO (VIA INTERCOMUNALE)","43.6506329101502","13.2082321720266",,
"ATMA_20118","MONTEMARCIANO (VIA INTERCOMUNALE)","43.646322744149","13.2058185248796",,
"ATMA_20119","GROTTINO","43.6419610118936","13.199273825835",,
"ATMA_2012","CASTELPLANIO (CROCEFISSO).","43.4906659148888","13.0833715855219",,
"ATMA_20120","FILETTO","43.6406884157533","13.1896768264515",,
"ATMA_20121","FILETTO (VIA INTERCOMUNALE)","43.6399925851974","13.1832756943716",,
"ATMA_20122","FILETTO (VIA INTERCOMUNALE)","43.6369079498393","13.1765528157969",,
"ATMA_20123","OSTRA (SAN GIOVANNI)","43.6333628953752","13.1751823071474",,
"ATMA_20124","OSTRA (TONELLI)","43.63058912589","13.1706395237004",,
"ATMA_20125","OSTRA (ENEL)","43.6271071707228","13.1685481290317",,
"ATMA_20126","OSTRA (CIMITERO).","43.6208729275326","13.1625461170492",,
"ATMA_20127","OSTRA  (VIA A. MORO).","43.6159961263583","13.1581626205344",,
"ATMA_20128","OSTRA (CAPOLINEA)","43.6115788650728","13.1564324929364",,
"ATMA_20129","OSTRA (S. GIOVANNI)","43.6128581277132","13.1591023272052",,
"CON_11293#F","PIEDIRIPA -SAN CLAUDIO - STAZIONE F.S.","43.2889886774292","13.5306579863528",,
"CON_11299#F","VISSO EX S.S.209","42.9350131980671","13.0818053440596",,
"CON_113","RECANATI VIALE COLLE DELL'INFINITO, 112","43.398972839355","13.5510176992803",,
"CON_1130#F","MORROVALLE - S.P. VERGINI B. MONTELUPONE","43.3188923501721","13.5566111502911",,
"CON_11300","VISSO EX S.S.209","42.9351231170288","13.0821855927856",,
"CON_11301#F"," VISSO - EX S.S.209 -3","42.9383774314105","13.0820504323575",,
"CON_11302"," VISSO - EX S.S.209 - 3","42.9388345495176","13.0825125793179",,
"CON_11303#F","VISSO - VILLA S. ANTONIO EX S.S.209","42.9417024779056","13.0832336329307",,
"CON_11304#F","VISSO - VILLA S. ANTONIO EX S.S.209","42.9419570360747","13.0836585494831",,
"CON_11309#F","PIEVETORINA - VARI S.P. 209","42.9875510842254","13.0772344533492",,
"CON_1131#F","MORROVALLE - S.P. VERGINI B. MONTELUPONE","43.3191283345118","13.5564726201477",,
"CON_11310#F","PIEVETORINA - VARI S.P. 209","42.9881134577336","13.0773547242796",,
"CON_11311#F","PIEVETORINA - GABBIANO S.P. 209","42.9932760413145","13.0709446623477",,
"ATMA_2013","CASTELPLANIO (CROCEFISSO)","43.4905302140428","13.0828662034827",,
"ATMA_20130","OSTRA (MULINO)","43.6168061785265","13.1591503928017",,
"ATMA_20131","OSTRA (CIMITERO)","43.6212524754785","13.1630805046644",,
"ATMA_20132","OSTRA (ENEL)","43.627127383262","13.1686857204021",,
"ATMA_20133","OSTRA (TONELLI)","43.6303000531721","13.170580117624",,
"ATMA_20134","OSTRA (S. GIOVANNI)","43.6334152610126","13.1753604697411",,
"ATMA_20135","FILETTO (VIA INTERCOMUNALE)","43.6372707334267","13.1769435105109",,
"ATMA_20136","FILETTO (VIA INTERCOMUNALE)","43.6398005468997","13.1845064607982",,
"ATMA_20137","FILETTO","43.6406300849559","13.1908267071232",,
"ATMA_20138","GROTTINO","43.6425282075813","13.2004142579148",,
"ATMA_20139","FILETTO (VIA INTERCOMUNALE)","43.6463068851954","13.2059553865934",,
"ATMA_2014","CASTELPLANIO (CIVERCHIA).","43.49174658308","13.0822009613413",,
"ATMA_20140","FILETTO (VIA INTERCOMUNALE)","43.6507998748082","13.2088317057285",,
"ATMA_20141","MONTE SOLAZZI","43.661833838479","13.2151512048544",,
"ATMA_20142","S.SILVESTRO (VIA ROMANA)","43.6534872629053","13.2174538829896",,
"ATMA_20143","S.SILVESTRO (CHIESA)","43.6547369334816","13.2274646485548",,
"ATMA_20144","S.SILVESTRO (FRECCIA AZZURRA)","43.6563448071444","13.2376978725061",,
"ATMA_20145","S.SILVESTRO","43.6558725234325","13.241758144765",,
"CON_11312#F","PIEVETORINA - GABBIANO S.P. 209","42.9936157476221","13.0712061487492",,
"CON_11313#F","PIEVETORINA - CASAVECCHIA EX S.S.209 - 2","42.9964882809005","13.0619530094244",,
"CON_11314#F","PIEVETORINA - CASAVECCHIA EX S.S.209 - 2","42.9967234441754","13.0617593599255",,
"CON_11315","PIEVETORINA LOCALIT CASAVECCHIA","42.9988253321094","13.0545145859841",,
"CON_11317#F","PIEVETORINA LOCALIT CASAVECCHIA EX S.S.","42.9993716713068","13.0535467350387",,
"CON_11318#F","PIEVETORINA LOCALIT CASAVECCHIA EX S.S.","42.9996224083292","13.0540836647135",,
"CON_11319#F","PIEVETORINA - CASAVECCHIA EX S.S.209 - 2","43.0011093760752","13.0517143056503",,
"CON_1132#F","MORROVALLE - S.P. VERGINI - 2","43.3172675266231","13.5629382110548",,
"CON_11320#F","PIEVETORINA - CASAVECCHIA EX S.S.209 - 2","43.0011193776707","13.0522567888274",,
"CON_11323","MONTECAVALLO - S.P. CASPRIANO","43.0021731836643","13.0119063777652",,
"CON_11327#f","PIEVETORINA - ROTI EX S.S.209","43.0364725357517","13.0409478560723",,
"CON_11328#F","PIEVETORINA - ROTI EX S.S.209","43.0364472699347","13.0414801583383",,
"CON_11329#F","PIEVETORINA - EX S.S.209","43.0380380550552","13.045051029683",,
"CON_1133#F","MORROVALLE - S.P. VERGINI - 1","43.3174860547486","13.5628351437613",,
"CON_11330#F","PIEVETORINA EX S.S.209","43.0400300288258","13.0472123985126",,
"CON_11331","PIEVETORINA EX S.S.209","43.040017008061","13.0474951734513",,
"CON_11334#F","PIEVETORINA EX S.S.209 - 1","43.0465943446448","13.0518650834231",,
"CON_11335#F","PIEVETORINA EX S.S.209 - 1","43.0464672719066","13.0521612335636",,
"CON_11336#F","PIEVETORINA - EX S.S.209","43.0475528370477","13.0523251065372",,
"CON_11337#F","PIEVETORINA - EX S.S.209","43.0478248338807","13.0528104268185",,
"CON_11338","MUCCIA CASE NUOVE","43.0846653959061","13.0439105255901",,
"CON_11339","MUCCIA CASE NUOVE","43.0846467707882","13.0442378744479",,
"CON_1134#F","MORROVALLE - S.P. VERGINI - 1","43.3193898950458","13.5677878714213",,
"CON_11347","CAMERINO  - EX S.S. 256","43.1224159345605","13.0590406904815",,
"CON_1135#F","MORROVALLE - S.P. VERGINI - 1","43.3192567818171","13.5681177703958",,
"ATMA_20146","S.SILVESTRO","43.6518794637511","13.2490965563673",,
"ATMA_20147","S.SILVESTRO (SETA)","43.6463279732858","13.2588367608246",,
"ATMA_20148","CASTELLARO (CHIESA)","43.6466353564983","13.2672127952135",,
"ATMA_20149","MONTEMARCIANO (VIA CASTELLARO)","43.643304665661","13.2741029091742",,
"ATMA_2015","CASTELPLANIO (CIVERCHIA)","43.4918231939352","13.0819460283822",,
"CON_1136#F","MORROVALLE - S.P. VERGINI B. PASSIONISTI","43.3155339712744","13.5736374668329",,
"CON_11360#F","VISSO PESCHIERE","42.9237917324351","13.1044825742595",,
"CON_11361#F","VISSO PESCHIERE","42.9239731670098","13.1047352175059",,
"CON_1137#F","MORROVALLE - S.P. VERGINI B. PASSIONISTI","43.3158999836475","13.5736023419078",,
"CON_1138#F","MORROVALLE S.P. VERGINI LA FONTE","43.3166695224716","13.5756453051906",,
"CON_1139#F","MORROVALLE S.P. VERGINI LA FONTE","43.3164937817034","13.5766597469692",,
"CON_1140","MORROVALLE S.P. 86 - V. 10 MAGGIO  (SCOL","43.3117584977266","13.581109777661",,
"CON_11401#F","BOLOGNOLA S.P. FIASTRA-BOLOGNOLA - 3","42.9977947081224","13.2182305119314",,
"CON_11402#F","BOLOGNOLA S.P. FIASTRA-BOLOGNOLA - 3","42.9975801206867","13.2176179069216",,
"CON_11403#F","ACQUACANINA S.P. FIASTRA-BOLOGNOLA - 2","43.0211182808831","13.1814526086437",,
"CON_11404#F","ACQUACANINA S.P. FIASTRA-BOLOGNOLA - 2","43.0202955330802","13.1824477518164",,
"CON_11405#F","ACQUACANINA S.P. FIASTRA-BOLOGNOLA - 1","43.0267924619101","13.1771947398226",,
"CON_11406#F","FIASTRA-BOLOGNOLA - 1","43.025807211051","13.1772062760053",,
"CON_11409#F","ACQUACANINA S.P. FIASTRA-BOLOGNOLA","43.0330180464768","13.1736248039946",,
"CON_1141","MORROVALLE S.P. 86 - V. 10 MAGGIO (SCOLA","43.3118379736212","13.5808901645452",,
"CON_11410#F","ACQUACANINA S.P. FIASTRA-BOLOGNOLA","43.0328753941324","13.1732795745155",,
"CON_11415#F","FIASTRA - S.P. 98","43.0383408192274","13.1502118221587",,
"CON_11416#F","FIASTRA - S.P. 98","43.0386759683923","13.150113586159",,
"CON_11417#F","FIASTRA - S.P. 98 - 1","43.0396134874209","13.1464194683697",,
"CON_11418#F","FIASTRA - S.P. 98 - 1","43.0397820305812","13.146633116013",,
"CON_1142","MORROVALLE - B.GO PINTURA S.P. 86 (SCOLA","43.3053856307382","13.5807923589255",,
"CON_11429#F","FIASTRA - S.MARCO S.P. 98","43.0728043940145","13.13242745725",,
"CON_11430#F","FIASTRA - S.MARCO S.P. 98","43.072646063638","13.1319838644851",,
"CON_11431#F","FIASTRA - COLLEVECCHIO S.P. 98","43.0787800059541","13.1282248288041",,
"CON_11432#F","FIASTRA - COLLEVECCHIO S.P. 98","43.0784073084488","13.1278771590159",,
"CON_11433#F","S.LORENZO POLVERINA S.P. 98","43.0863222635348","13.1239719680786",,
"CON_11434#F","S.LORENZO POLVERINA S.P. 98","43.0857889503481","13.1239631861058",,
"CON_11435#F","POLVERINA - 1","43.0907718560483","13.1187809696177",,
"CON_11436#F","POLVERINA - 1","43.0913906489924","13.1185351320661",,
"CON_11437#F","S.MARCO CIMITERO","43.0653326932059","13.130520558279",,
"CON_11438#F","S.MARCO CIMITERO","43.0655943395972","13.1308390764806",,
"CON_11445","POLVERINA - SAN SILVESTRO","43.1008862566256","13.0985548965512",,
"CON_1146","MORROVALLE S.P. VERGINI V.BATTISTI","43.3138307492214","13.5786491218653",,
"CON_11463","CAMERINO - S.P.VARANESE - SFERCIA","43.1100858225275","13.1265408299113",,
"CON_11465","CAMERINO - LOCALIT SFERCIA - BV SANTA L","43.1104743675776","13.1163925518999",,
"CON_11466","BAREGNANO - S.P. VARANESE","43.1127663448703","13.1019400436859",,
"CON_11467","BAREGNANO - S.P. VARANESE","43.1124025655623","13.1018485279595",,
"CON_11468","CAMERINO - LOCALIT SAN LUCA - S.P. VARA","43.1162360570081","13.0875463682809",,
"CON_1148","MORROVALLE","43.3147535788263","13.5829328454835",,
"CON_1149#F","MORROVALLE S.P. VERGINI RIST. APOLLO 8","43.3170813484574","13.5889995094232",,
"CON_115","GAGLIOLE","43.2391766116988","13.0682138191666",,
"CON_1150#F","MORROVALLE S.P. VERGINI RIST. APOLLO 8","43.3168413471601","13.5890317006187",,
"CON_11505#F","PIEVETORINA - CAPRIGLIA","43.0112352800058","13.0458522154863",,
"CON_11506#F","PIEVETORINA LOCALIT CAPRIGLIA","43.0113843440607","13.0463363266708",,
"CON_11507","MONTECAVALLO","42.9962249188762","13.0042192247623",,
"CON_11508","MONTECAVALLO","42.9960521117786","13.0045558885639",,
"CON_1151#F","MORROVALLE - S.P. VERGINI MADONNINA","43.3180680263964","13.5952661083404",,
"CON_11518","S.P. 99 PIEVEBOVIGLIANA","43.0570234337494","13.0877125159628",,
"CON_1152#F","MORROVALLE - S.P. VERGINI MADONNINA","43.3184424659903","13.5962467125082",,
"CON_11524","PIEVEBOVIGLIANA - S.P. 99 INCR. VIA CAMP","43.067884182493","13.0821697530473",,
"CON_11526","PONTELATRAVE MULINO SALVI","43.0788241260611","13.0804039656189",,
"CON_1153#F","MORROVALLE - S.P. VERGINI (ASILO)","43.3196667048566","13.6052341739978",,
"CON_11530","FORCELLA S.P. 51","42.9586354943933","12.940994389435",,
"CON_11531","FORCELLA - S.P 51","42.9582973176004","12.9408694395612",,
"CON_11532","COLLECURTI","42.9640905040654","12.9361183248616",,
"CON_11533","COLLECURTI S.P. 51","42.9639492485882","12.9357499754288",,
"CON_11536","S.P. 51 B. COLPASQUALE","42.9699202446842","12.9316213604439",,
"CON_1154#F","MORROVALLE - S.P. VERGINI ASILO","43.3200294422735","13.6049615016517",,
"CON_11543","ACQUAPAGANA","42.9844617073375","12.9301665234105",,
"CON_1155#F","MORROVALLE - S.P. VERGINI B. MONTELUPONE","43.3224661785719","13.6072415350231",,
"CON_11553","COLFIORITO (UMBRIA MARCHE)","43.029900584894","12.8918463572285",,
"CON_11555","TAVERNE","43.0280811967826","12.9162803698312",,
"CON_11556","TAVERNE","43.0282557157345","12.9159932379578",,
"CON_11557","TAVERNE","43.0335715672843","12.9217221401844",,
"CON_1156#F","MORROVALLE - S.P. VERGINI B. MONTELUPONE","43.3228440263418","13.6069715256312",,
"CON_1157#F","MONTECOSARO - S.P. VERGINI","43.3245515246316","13.6120963888396",,
"CON_1158#F","MONTECOSARO - S.P. VERGINI","43.324887448106","13.6125139887773",,
"CON_11581","MORRO - S.P. 17 - CHIESA S.BIAGIO","43.1151322705288","13.0313452099816",,
"CON_1159#F","MONTECOSARO S.P. MOLINO (MULINO ZAZZINI)","43.3220650876841","13.6307215055506",,
"CON_11596","CORGNETO (INFERIORE)","42.9970674001964","12.9168836225936",,
"CON_116","GAGLIOLE LOCALIT COLLAIELLO","43.2325341789061","13.0723798042116",,
"CON_1160#F","MONTECOSARO S.P. MOLINO","43.321908407463","13.6310460642842",,
"CON_11600","SERRAVALLE INIZIO PAESE - (SCHERMO)","43.0699008062254","12.9476991051452",,
"CON_11601","SERRAVALLE INIZIO PAESE","43.0699330615837","12.9475521184463",,
"CON_11604","SERRAVALLE C.SO G. LEOPARDI","43.0721692432155","12.9525240426118",,
"CON_11606","SERRAVALLE USCITA","43.0750873641503","12.9570003064349",,
"CON_11607","SERRAVALLE USCITA","43.0751319233009","12.9567459792842",,
"CON_1161#F","MONTECOSARO V.MART.LIBERTA'","43.3186891314232","13.6355299537154",,
"CON_11629","CACCIANO S.S. 76 CIV. 83","43.2882356339999","12.8388922296946",,
"CON_1163#","MONTECOSARO S.P. MOLINO CIV.N.50","43.3197480274441","13.6343162148369",,
"CON_11630","CACCIANO S.S. 76 CIV. 83","43.2882883225538","12.8391573782673",,
"CON_11637","CAMPODONICO 2","43.232066767984","12.8638152706662",,
"CON_1164","CORNIETO","42.9979848893713","12.9181288297664",,
"CON_1164#F","MONTECOSARO - S.P. VERGINI - SAN GIACOMO","43.324225382399","13.6336307576554",,
"CON_11641","CAMPODONICO 1","43.2255458936196","12.863315040762",,
"CON_11642","CAMPODONICO 1","43.225460252841","12.8638084914866",,
"CON_11647","FIUMINATA - VALLIBBIA S.P. 361","43.196038007633","12.9081396257138",,
"CON_11648","FIUMINATA - VALLIBBIA S.P. 361","43.1958373403147","12.9085257672122",,
"CON_11649","CASTAGNA - FIUMINATA","43.192686449219","12.9132850965985",,
"CON_1165#F","S.P. VERGINI - SAN GIACOMO","43.3238880125909","13.6337081022478",,
"CON_11650","CASTAGNA - FIUMINATA","43.1924180532736","12.9130885039252",,
"CON_11651","FIUMINATA - S.S 361","43.1884072400127","12.9158041341021",,
"CON_11652","FIUMINATA - S.S. 361","43.1883171814034","12.9154900811544",,
"CON_11655","S.S. 361 FIUMINATA","43.1843150278357","12.9413278725234",,
"CON_11656","S.S 361 FIUMINATA","43.1844631567331","12.9418025278798",,
"CON_1166","COSTA","42.993914577874","12.9220030743698",,
"CON_1166#F","CIVITANOVA MARCHE - S.P. VERGINI (MANEGG","43.3236690622684","13.6516586873596",,
"CON_11660","FABRIANO - SP 16 LOCALIT SERRADICA","43.2582320616551","12.8530637034895",,
"CON_11661","FABRIANO - SP 16 LOCALIT SERRADICA","43.2582357709045","12.8533595804448",,
"CON_11662","PIORACO - SAN ROCCO","43.1824721589581","12.9611827038524",,
"CON_11663","PIORACO - S.S. 361","43.1827108439872","12.9612840722543",,
"CON_11666","PIORACO S.P. SEPTEMPEDANA CIV. 58","43.1796930011107","12.9775746339709",,
"CON_11667","PIORACO S.P. SEPTEMPEDANA CIV. 58","43.1799157288902","12.9776263146579",,
"CON_1167#F","CIVITANOVA MARCHE - S.P. VERGINI (MANEGG","43.3240292385278","13.6515259432958",,
"CON_11673","SEFRO","43.1494622360487","12.953361204193",,
"CON_11674","SEFRO","43.1498498295835","12.9530949522991",,
"CON_1168#F","CIVITANOVA MARCHE - S.P. VERGINI (BIVIO ","43.3240154122891","13.6597190543385",,
"CON_11685","LOCALIT PARADISO (S.P. SEPTEMPEDANA)","43.1800500304754","13.011359673757",,
"CON_1169#F","CIVITANOVA MARCHE - S.P. VERGINI (BIVIO ","43.3237498033433","13.6597975871596",,
"CON_11737","CESOLO","43.2604305450027","13.1946146148245",,
"CON_11752","SAN SEVERINO - TACCOLI","43.2403410148241","13.2165312447849",,
"CON_118","GAGLIOLE LOCALIT CELEANO","43.2244156706844","13.0752553149798",,
"CON_11829","CAMERINO - BIOCCO","43.1575712671083","13.0914135972531",,
"CON_11830","CAMERINO - BIOCCO","43.1571781356888","13.0913673649985",,
"CON_119","GAGLIOLE LOCALIT SELVALAGLI","43.2180521862789","13.0654426785185",,
"CON_11900","MONTAGNANO VIA D'ACCORSO","43.1434323867386","13.0724087402637",,
"CON_11943","CAMERINO - MONTAGNANO BASSO","43.1440185423181","13.0699066522609",,
"CON_11944","CAMERINO MONTAGNANO BASSO (MONTE)","43.1438084106607","13.0699816848681",,
"CON_11962","CAMERINO (QUARTIERE VALLICELLE)","43.1288824722711","13.0634513216566",,
"CON_11963","CAMERINO (QUARTIERE VALLICELLE - ITC)","43.1290351753918","13.0636218255718",,
"CON_11965","CAMERINO (CENTRO RIABILITAZIONE)","43.1273107765642","13.0661225922976",,
"CON_11969","CAMERINO (VIA O.ORAZI)","43.128596539099","13.0680874486008",,
"CON_12","PIORACO","43.17795519792","12.9857053584041",,
"CON_12001","CAMERINO - INAIL (VALLE)","43.1485835984695","13.0637906502382",,
"CON_12002","CAMERINO INAIL (MONTE)","43.1483603104314","13.0637238894317",,
"CON_12003","CAMERINO - LUIANO","43.1542308543346","13.0597989005183",,
"CON_12004","CAMERINO - LUIANO","43.1538926245938","13.0597296124567",,
"CON_12013","CAMERINO - INCROCIO AGNANO","43.1677714973464","13.0582489738227",,
"CON_12014","CAMERINO - INCROCIO AGNANO","43.1676250979199","13.0579209029299",,
"CON_12015","CAMERINO - S:P. 256 (DISTRIBUTORE API)","43.1762850664055","13.0546102724202",,
"CON_12016","CAMERINO - S:P. 256 (DISTRIBUTORE API)","43.1762779474121","13.0544119713741",,
"CON_12023","CASTELRAIMONDO CAMPO SPORTIVO","43.2004259882523","13.0536817406003",,
"CON_12024","CASTELRAIMONDO CAMPO SPORTIVO","43.201075139532","13.0536806071695",,
"CON_12036","LOCALIT VASCONI - SS 256","43.2229025637647","13.0409808322214",,
"CON_12046","MATELICA EX S.S. 256","43.2638174793306","13.0090856710925",,
"CON_12049","MATELICA EX S.S. 256","43.2684587991583","13.0072943243285",,
"CON_12051","MATELICA LEBOLE(ZONA INDUSTRIALE)","43.2752724293063","13.0042397869295",,
"CON_12054","MATELICA EX S.S. 256","43.2851662184154","12.998587586516",,
"CON_12061","MATELICA STAB. MERLONI","43.270675727249","13.0063823999222",,
"CON_12062","CERRETO D'ESI STAB. MERLONI","43.2703921866027","13.006019573604",,
"CON_12067","CERRETO D'ESI EX S.S. 256","43.3162706245524","12.9861920329975",,
"CON_12068","CERRETO D'ESI EX S.S. 256","43.3162534872262","12.9863345355504",,
"CON_12071","CERRETO D'ESI EX S.S. 256 INCR. VIA G. M","43.32408149386","12.9884087028942",,
"CON_12072","CERRETO D'ESI EX S.S. 256 INCR. VIA G. M","43.3240506193943","12.9880413307191",,
"CON_12073","ALBACINA CIMITERO","43.3399267994791","13.0003048218137",,
"CON_12080","BORGO TUFICO STAB. MERLONI","43.3462229020442","12.9975194732311",,
"CON_121","GAGLIOLE LOCALIT ACQUOSI","43.2404921537622","13.0608194111113",,
"CON_12112","FABRIANO - VIA MILIANI - CHIESA","43.3305177949956","12.8997668298236",,
"CON_12113","FABRIANO - VIA MILIANI - CHIESA","43.3303830189373","12.8997956388821",,
"CON_12114","FABRIANO S.S. 76 CARTIERA","43.3239571926783","12.8924327260474",,
"CON_12115","FABRIANO CARTIERA","43.3239583519888","12.8928830040852",,
"CON_12116","FABRIANO - S.S. 76 CONC. RENAULT","43.3220035935506","12.8889166280941",,
"CON_12118#F","FABRIANO S.S. 76 CONC. RENAULT","43.3186394564666","12.8778603019898",,
"CON_12119#F","FABRIANO - S.S. 76","43.3182813363519","12.8784110718969",,
"CON_12120#F","FABRIANO - FRAZIONE CANCELLI CIMITERO","43.3103632610249","12.8542609810232",,
"CON_12121#F","CANCELLI S.S. 76","43.3011236114299","12.8402464559873",,
"CON_12122#F","FABRIANO - FRAZIONE CANCELLI S.S. 76 CIV","43.3008713472812","12.8405942599068",,
"CON_12124","CERRETO D'ESI B. CACCIANO","43.3286420593025","12.9928861929807",,
"CON_12125","CERRETO D'ESI B. CACCIANO","43.3286632519697","12.9927295796626",,
"CON_12127","ALBACINA (STABILIMENTO STONA)","43.3388640421843","12.9988944819909",,
"CON_12128","ALBACINA (STABILIMENTO STONA)","43.3391155041463","12.9992120692843",,
"CON_12131#F","FABRIANO - FRAZIONE CANCELLI CIMITERO","43.3101887584687","12.8546831093321",,
"CON_12154","FIUMINATA - BUFETO","43.1919792276849","12.8687864330602",,
"CON_12156","FIUMINATA - BUFETO","43.192072357277","12.8694483547758",,
"CON_12158","CAMPOTTONE","43.2131615304394","12.8618208274978",,
"CON_1216","APPIGNANO VIA IV NOVEMBRE (OFFICINA)","43.3605921367268","13.3519294233963",,
"CON_12223","MORRO (BIVIO GELAGNA)","43.0770518427162","12.9851496257615",,
"CON_12224","MORRO (BIVIO GELAGNA)","43.0769947762735","12.9853380077264",,
"CON_12225","MORRO (BIVIO GELAGNA)","43.0769023653067","12.9851408045246",,
"CON_123","MATELICA","43.2536016203683","13.0096909773498",,
"CON_1239","APPIGNANO - S.P. 57 CABINA ENEL","43.3611082376429","13.3672292798751",,
"CON_124","MONTE SAN GIUSTO (TRANSFER)","43.2325584649762","13.6035077141623",,
"CON_1240","APPIGNANO - S.P. 57 CABINA ENEL","43.3613171734246","13.367096330151",,
"CON_126","CORRIDONIA (BIVIO RENZI)","43.2597438071379","13.4963336856837",,
"CON_129","CORRIDONIA - COLBUCCARO","43.2456202008837","13.4467983983523",,
"CON_1296","VISSO - POSTE - (SCHERMO)","42.932040480561","13.0841077943532",,
"CON_1298","VISSO - EX PARCO HOTEL","42.9329653612806","13.0833116641425",,
"CON_13","SEFRO - S.P. 97 (BIVIO LOC. AGOLLA)","43.1576564265912","12.9715330559671",,
"CON_130","CORRIDONIA - S.P. 78 (BIVIO COLBUCCARO)","43.2501929501305","13.4174598385551",,
"CON_1305","VISSO - VILLA SANT'ANTONIO","42.9433380770178","13.0834273744658",,
"CON_1306","VISSO - VILLA SANT'ANTONIO","42.9434582731381","13.0835069913635",,
"CON_1307","VISSO - PARCO HOTEL","42.932984309304","13.0830110263848",,
"CON_131","SFORZACOSTA - BIVIO S.S. 77","43.254853471757","13.4149122216069",,
"CON_132","BOLOGNOLA","42.9933654324682","13.227769065919",,
"CON_133","ACQUACANINA","43.030185956967","13.1750876110715",,
"CON_134","SAN LORENZO AL LAGO","43.0377793002896","13.1659473185449",,
"CON_135","FIASTRA","43.0360891052094","13.1554715660557",,
"CON_1358","VISSO - LA FILANDA","42.9291020924022","13.0888654532632",,
"CON_1359","VISSO - LA FILANDA","42.9292177136636","13.0882425904421",,
"CON_136","FIASTRA - POGGIO","43.0483071327182","13.1423150198535",,
"CON_137","FIEGNI","43.0609047755656","13.1635202891302",,
"CON_138","FIASTRA - CICCONI","43.0567364038506","13.1324180668298",,
"CON_139","CAMERINO - LOCALIT SENTINO","43.0948243340086","13.0941138427839",,
"CON_1395#F","LORETO EX S.S. 77","43.4323019810893","13.5998980979703",,
"CON_1396#F","LORETO EX S.S. 77","43.4325521892132","13.6003290186431",,
"CON_1397#F","LORETO - EX S.S. 77 - 13","43.4285233422585","13.5950130826054",,
"CON_1398#F","RECANATI - EX S.S. 77 - 13","43.4287604763719","13.594400600845",,
"CON_1399#F","EX S.S. 77 - 12","43.4275352486665","13.5908630603479",,
"CON_14","AGOLLA","43.1462906352529","12.9728101687535",,
"CON_140","PULCIANO","43.0996875815227","13.0909216717312",,
"CON_1400#F","EX S.S. 77 - 12 CONERO BUS","43.4276300785533","13.5900842743584",,
"CON_1401#F","EX S.S. 77 - 11 CONEROBUS","43.4246660232743","13.5839364345258",,
"CON_1402#F","EX S.S. 77 - 11 CONEROBUS","43.4244941200006","13.5834541731612",,
"CON_1405#F","EX S.S. 77 - 10","43.4223812131208","13.5812952254354",,
"CON_14057","SAN SEVERINO - CESOLO","43.2563514935027","13.1941376158648",,
"CON_1406#F","EX S.S. 77 - 10","43.4220609278616","13.5811474621242",,
"CON_1407#F","RECANATI EX S.S. 77 - 1","43.4142553813012","13.5747869814953",,
"CON_1408#F","RECANATI EX S.S. 77 - 1","43.4144901271311","13.5745527089363",,
"CON_1409#f","RECANATI EX S.S. 77 CONERO BUS","43.4095319766668","13.570041763814",,
"CON_141","COLLEALTINO","43.0999033686524","13.107430126143",,
"CON_14103","SAN SEVERINO (INCROCIO PAROLITO)","43.2316835951209","13.2097586546012",,
"CON_14140#F","RECANATI EX S.S. 77 VILLAGGIO GINESTRE","43.4094547234168","13.5694848480306",,
"CON_14156","SAN SEVERINO - LOCALIT BERTA","43.2677588827082","13.2628632058808",,
"CON_142","CAMERINO - LOCALIT SAN MARCELLO","43.1006425523503","13.0697562785446",,
"CON_1425#F","RECANATI - EX S.S. 77 - 9","43.3946665407548","13.5372640301074",,
"CON_1426F","RECANATI - EX S.S. 77 - 9","43.3943124439236","13.5370559960145",,
"CON_1427#F","RECANATI - EX S.S. 77 - 8","43.3884219366466","13.5364779043261",,
"CON_1428#F","RECANATI - EX S.S. 77 - 8","43.3879818694055","13.5357019465582",,
"CON_1429#F","RECANATI - EX S.S. 77 - 7","43.384869221491","13.5368592929847",,
"CON_143","CAMERINO - BIVIO SANTA BARBARA","43.1004659094301","13.0482022541182",,
"CON_1430#F","RECANATI - EX S.S. 77 - 7","43.3845748365938","13.5363330428538",,
"CON_1431#F","EX S.S. 77 - 6","43.3749161414397","13.523683721944",,
"CON_1432#F","EX S.S. 77 - 6","43.3751129281012","13.5229285110797",,
"CON_1435#F","RECANATI - EX S.S. 77 - 5","43.3613714257734","13.5036567380756",,
"CON_14357","SAN SEVERINO - LOCALIT TACCOLI DIR. TOL","43.2414709266529","13.2195095043168",,
"CON_1436#F","RECANATI - EX S.S. 77 - 5","43.3615134236155","13.5036182363138",,
"CON_1437#F","RECANATI -  77 - N. 45","43.3595069125868","13.4973117723601",,
"CON_1438#F","RECANATI -  77 - N. 45","43.35959305248","13.4972333567683",,
"CON_1439#F","RECANATI - SAMBUCHETO - EX S.S. 77 - 3","43.3572970029349","13.4895693932017",,
"CON_1440#F","RECANATI - SAMBUCHETO - EX S.S. 77 - 3","43.3574291338612","13.489626816155",,
"CON_1441#F","SAMBUCHETO EX S.S. 77","43.3564690955862","13.4842739198239",,
"CON_1442#F","SAMBUCHETO EX S.S. 77","43.3565935211889","13.4841499524275",,
"CON_1445#F","EX S.S. 77 SANT'EGIDIO - 2","43.351230290077","13.4686823547406",,
"CON_1446#F","EX S.S. 77 SANT'EGIDIO - 2","43.3512070437427","13.4688977339573",,
"CON_1447#F","EX S.S. 77 SANT'EGIDIO - 1","43.3489451917463","13.4631438998869",,
"CON_1448#F","EX S.S. 77 SANT'EGIDIO  - 1","43.3490457609766","13.4631620164024",,
"CON_1451#F","EX S.S. 77 S.EGIDIO","43.3452013650754","13.4539389835581",,
"CON_1452#F","EX S.S. 77 S.EGIDIO","43.3455998838736","13.4550740655926",,
"CON_1453#F","EX S.S. 77","43.340706879631","13.4397705272563",,
"CON_1454#F","EX S.S. 77","43.3407182168772","13.4391695130975",,
"CON_1459","H. RECINA - VIA A. DE GASPERI (APM)","43.3303669565194","13.4254457879686",,
"CON_1472","CAMERINO - S.S. VARANESE","43.1260367850039","13.0803756382025",,
"CON_148","CAMERINO - LOCALIT SFERCIA (BV SANTA LU","43.1105273150024","13.1163755231988",,
"CON_149","CAMERINO - LOCALIT VARANO","43.112034479976","13.1201118301969",,
"CON_15","SEFRO","43.1465406074542","12.9493228627783",,
"CON_150","LOCALIT SANTA LUCIA (CAMERINO)","43.1156081429214","13.1123879948522",,
"CON_15054","S.P. 361 PONTE MONOCCHIA (MONTEFANO)","43.3919485272654","13.4240565145998",,
"CON_15055","S.P. 361 PONTE MONOCCHIA (MONTEFANO)","43.3917951946784","13.4237567012742",,
"CON_15061","LOCALIT ASPIO VECCHIO (AN)","43.5309161937994","13.5004626521667",,
"CON_15062","LOCALIT ASPIO VECCHIO (AN)","43.5309455390406","13.5004009634366",,
"CON_151","CAMERINO - LOCALIT ARCOFIATO","43.1329613559497","13.0919664082241",,
"CON_15220","TOLENTINO S.P. 78 (SALITA PATo - SASP)","43.230057913647","13.4044085027493",,
"CON_15223","TOLENTINO BV. COLBUCCARO (SASP)","43.2497729562265","13.4154119176273",,
"CON_15260","MASSA FERMANA - LOCALIT MASSA MADONNETT","43.1543178225844","13.4749487372631",,
"CON_153","CAMERINO - LOCALIT SAN LUCA","43.1160916602196","13.0873873042863",,
"CON_15302","POLLENZA - TREBBIO CIMITERO","43.2598545857854","13.355559146987",,
"CON_155","CORRIDONIA VILLA FERMANI","43.2519389298654","13.5258814254121",,
"CON_156","CORRIDONIA MATTATOIO","43.2490659513223","13.5037644224573",,
"CON_157","CORRIDONIA - ZEGALARA","43.2502878263814","13.5063511677271",,
"CON_158","VISSO - LOCALIT RASENNA","42.9466520618834","12.9558107679168",,
"CON_159","VISSO - LOCALIT FORCELLA","42.9567705696677","12.9425941346909",,
"CON_16","SORTI","43.1211677117336","12.9513907316307",,
"CON_160","SAN MARTINO","42.9727462739981","12.9299429543556",,
"CON_1610","P.TREIA S.P.124 V. MOLINO 20 MT. PRIMA C","43.2815292911524","13.3345424296057",,
"CON_1611","PASSO DI TREIA S.P.124 V. MOLINO","43.2820636881195","13.334674600202",,
"CON_162","CIVITELLA DIRAMAZ.","42.9762235033024","12.9188536968946",,
"CON_163","ACQUAPAGANA","42.9844531846083","12.9299915803928",,
"CON_16384","VALLE CASCIA","43.3465808945793","13.4339586383576",,
"CON_164","COSTA","42.9938118883776","12.9219554321798",,
"CON_16405","CAMERINO - MADONNA DELLE CARCERI","43.1428356797137","13.0671039759101",,
"CON_165","CORNIETO","42.9978638942704","12.9182367000719",,
"CON_16555#F","PIEVETORINA NINO","43.0611712593006","13.0615961040762",,
"CON_166","MADONNA DEL PIANO","42.9932868352363","12.9114176499707",,
"CON_1661","EX S.S. 361 DISTR.","43.412900876989","13.4415811234732",,
"CON_1662","EX S.S. 361 DISTR.","43.4128019327849","13.4417048649101",,
"CON_1663","EX S.S. 361 20 MT. DOPO CIV. 135","43.4139252660734","13.445359751749",,
"CON_1664","EX S.S. 361 MONTEFANO","43.4136770058221","13.4454639525856",,
"CON_167","CESI","43.0034301671834","12.8998388738132",,
"CON_168","COLFIORITO","43.029867444413","12.8920520861809",,
"CON_169","TAVERNE","43.032254209297","12.9208118166999",,
"CON_170","BORGO DIRAMAZIONE","43.026940283549","12.9371583803487",,
"CON_17001","FABRIANO VIA SERAFINI","43.3417174279651","12.9029492312767",,
"CON_17002","FABRIANO VIA SERAFINI","43.3417281514163","12.9030076217206",,
"CON_17003","FABRIANO VIA IV NOVEMBRE","43.3366594068727","12.8996891593515",,
"CON_17004","FABRIANO VIA IV NOVEMBRE","43.3365712098277","12.8998488631885",,
"CON_17005","FABRIANO - VIA IV NOVEMBRE INC. FONTANEL","43.3351270337166","12.8988509870065",,
"CON_17006","FABRIANO VIA IV NOVEMBRE INCR. FONTANELL","43.3354513408599","12.8991922854197",,
"CON_17009","CASE MINIME - FABRIANO","43.3289277502122","12.8977580212247",,
"CON_17010","CASE MINIME - FABRIANO","43.3287739211476","12.8978465343987",,
"CON_17013","FABRIANO PORTA DEL PIANO INCR. G. MOCCIA","43.3313395264774","12.9016505736446",,
"CON_17022","FABRIANO VIA A. ZONGHI","43.3364409557613","12.9091571172414",,
"CON_17027","FABRIANO VIA NENNI","43.3521388690783","12.9301640991049",,
"CON_17030","FABRIANO VIA CORSI","43.3531218589946","12.9281081894869",,
"CON_17031","FABRIANO VIA CORSI","43.3519047648036","12.9248268034602",,
"CON_17039","FABRIANO STADIO","43.3468068937681","12.9180891315957",,
"CON_17043","FABRIANO - V.LE CAMPO SPORTIVO","43.3430589310103","12.9132415778211",,
"CON_17058","FABRIANO V.LE MARTIRI DELLA LIBERTA'","43.3418550134105","12.8971458277155",,
"CON_17059","FABRIANO V.LE MARTIRI DELLA LIBERTA'","43.3424947100555","12.8962099736811",,
"CON_17064","FABRIANO A.MERLONI","43.3479671205399","12.9081196810359",,
"CON_17065","FABRIANO A. MERLONI","43.346335392532","12.9067815853823",,
"CON_17073","FABRIANO VIA SCALA  - OSPEDALE","43.3405462917434","12.9078748921929",,
"CON_17079","FABRIANO VIA A. GRANDI","43.3526104734891","12.9202969228365",,
"CON_17080","FABRIANO - VIA LA SPINA","43.3350867112432","12.9092204252405",,
"CON_17087","FABRIANO - SCUOLA MEDIA GENTILE","43.3379606087164","12.9127231329374",,
"CON_17091","FABRIANO VIA GRIFONI","43.3403660757322","12.9129654535539",,
"CON_17096","FABRIANO - VIA TOMMASI","43.3439651114164","12.9177130083753",,
"CON_171","DIGNANO DIRAMAZIONE","43.0201724242478","12.9278895588658",,
"CON_17130","FABRIANO INC.CERESOLA","43.3448419527955","12.8855453237326",,
"CON_17131","FABRIANO - VIA BRODOLINI INCR. CERESOLA","43.3444861955975","12.8854832583089",,
"CON_17146","MELANO - FABRIANO","43.3425683221817","12.8395672717051",,
"CON_172","LOC. TAVERNE (CASA CANTONIERA)","43.0550835810709","12.9306525341237",,
"CON_173","SERRAVALLE DI CHIENTI - INCROCIO","43.069375801579","12.9470680339646",,
"CON_176","SERRAVALLE DEL CHIENTI - BAVARETO","43.0758925671313","12.972869646292",,
"CON_178","GELAGNA BASSA DIRAMAZ.","43.0750137682292","13.00225199567",,
"CON_17892","FABRIANO VIA CORSI","43.3520168550504","12.9248013898709",,
"CON_17897","FABRIANO VIA A. GRAMSCI - S.M.MADDALENA","43.3303844987623","12.8994654701021",,
"CON_179","GELAGNA ALTA","43.0886278785009","13.0068558171678",,
"CON_17989","FABRIANO INCROCIO VIA BOVIO","43.3307219491576","12.9006406333021",,
"CON_18","PIORACO - LA MADONNETTA","43.1816185795977","12.9726314206058",,
"CON_180","CAMERINO - LOCALIT MORRO","43.1135322846675","13.0272551920053",,
"CON_18005","CAMERINO VIA DANTE ALIGHIERI","43.1303726602879","13.0616901293067",,
"CON_18006","CAMERINO - MERCATO COPERTO","43.1344174488681","13.0675400204063",,
"CON_18009","CAMERINO - VIA VENANZI","43.1382894248466","13.0708520022715",,
"CON_18012","CAMERINO VIA D'ACCORSO","43.1430625887208","13.0759725239746",,
"CON_18013","CAMERINO - VIA VINCENZO OTTAVIANI","43.1482403978674","13.0582609379036",,
"CON_18014","CAMERINO - VIA PICCOLOMINI 22","43.1450943536258","13.057207536727",,
"CON_18015","CAMERINO - VIA L. VALERI","43.1460774877271","13.0589752775273",,
"CON_18016","CAMERINO - VIA PICCOLOMINI 81","43.1440739312818","13.0569752816991",,
"CON_18018","CARDAROLA S.S. 502 C.S. S. LORENZO","43.1406380094205","13.2106359238642",,
"CON_18019","CESSAPALOMBO - PINTURA DEL GRILLO - S.P.","43.1191085012355","13.2400231125358",,
"CON_18020","TREIA - BIVIO CONTRADA VALLONICA","43.2703874157634","13.274729644411",,
"CON_18021","TREIA - BIVIO CONTRADA VALLONICA","43.2706886966034","13.2746320528087",,
"CON_18022","TREIA - CATIGNANO (SAN SEVERINO)","43.2723273685492","13.2838450514754",,
"CON_18023","TREIA - CATIGNANO - S.S. SETTEMPEDANA","43.2716613125789","13.2789238669288",,
"CON_18024","TREIA - CATIGNANO S.P. SEPTEMPEDANA","43.277337221234","13.3037457361979",,
"CON_18025","TACCOLI (ROTONDA)","43.2411314112632","13.2186516475633",,
"CON_18026","TOLENTINO C. COMMERCIALE","43.2165095521062","13.310593907648",,
"CON_18027","POLLENZA - EX. S.S. 77 KM 80","43.2437600092423","13.3792739292944",,
"CON_18028","TOLENTINO VIA B. BUOZZI","43.2063021834565","13.2767972972483",,
"CON_18037","S.P.28 CORRIDONIA-COLBUCCARO","43.2499755896685","13.4186919694392",,
"CON_18038","COLMURANO BV. C.TRD MONTELORETO","43.1690292654512","13.3629491354409",,
"CON_18039","PASSO DI TREIA - S.P. ROTELLI - LONGHI","43.2828288268464","13.3371549397224",,
"CON_18040","POLLENZA - S.P. ROTELLI - C.DA PETRARCA ","43.2842752009325","13.3447268352191",,
"CON_18041","POLLENZA - S.P. ROTELLI - C.DA POTENZA (","43.2856897826335","13.3516151169742",,
"CON_18042","POLLENZA - S.P. ROTELLI - C.DA MORLA (UR","43.2870131910091","13.3556689167071",,
"CON_18043","POLLENZA - S.P. ROTELLI - C.DA MORLA (UR","43.2871150109005","13.355294389247",,
"CON_18044","POLLENZA - S.P. ROTELLI - C.DA PETRARCA ","43.2845375457864","13.3445827369116",,
"CON_18045","PASSO DI TREIA - S.P. ROTELLI - LONGHI","43.2830465842985","13.3368946193041",,
"CON_18046","PASSO DI TREIA - PONTE","43.2833132842164","13.3336948175444",,
"CON_18048","PASSO DI TREIA S.P. SEPTEMPEDANA","43.281991310397","13.3246826262565",,
"CON_18049","PASSO DI TREIA S.P. SEPTEMPEDANA","43.2818447068032","13.3247991503529",,
"CON_18050","MACERATA - VIA L. VENTURA (APM)","43.2992080738982","13.5074717902354",,
"CON_18052","MORROVALLE - TRODICA (SCATOLIFICIO)","43.2754758882201","13.5979362154846",,
"CON_18053","S.P. 485 B.GO ST. MONTECOSARO","43.2830494518863","13.639636294625",,
"CON_18054","S.P. 485 B.GO ST. MONTECOSARO","43.2832248544934","13.6396617318965",,
"CON_18055","BAVARETO SEMAFORO","43.0758506238044","12.9757085201394",,
"CON_18056","BAVARETO SEMAFORO","43.0757075288873","12.9752559790533",,
"CON_18057","CESI","43.0059320463904","12.8988819953218",,
"CON_18058","ACQUAPAGANA","42.9857443443649","12.9292667624948",,
"CON_18060","S.S. 361 BIVIO FIUMINATA","43.1848033893045","12.9356678053915",,
"CON_18061","S.S. 361 BIVIO FIUMINATA","43.1844630865987","12.9354253270445",,
"CON_18062","SERRADICA","43.2693082521908","12.8497134572107",,
"CON_18066","FABRIANO VIA A. MERLONI","43.3456568099875","12.906217338578",,
"CON_18067","FABRIANO VIA. A. MERLONI","43.3455748528414","12.9063278751296",,
"CON_18068","FABRIANO VIA SERAFINI","43.340147261518","12.901510013649",,
"CON_18069","FABRIANO VIA SERAFINI","43.3402321486192","12.9013650969814",,
"CON_18070","FABRIANO VIA BRODOLINI INCR. VIA M. FOIB","43.3435787533955","12.8909120975344",,
"CON_18074","FABRIANO VIA TOMMASI","43.3437078695382","12.9179640063025",,
"CON_18075","CACCIANO - CIMITERO","43.2789149246318","12.8465432422675",,
"CON_18076","CACCIANO - CIMITERO","43.2787597777835","12.846274817034",,
"CON_18077","FABRIANO - S.P. 47","43.3471889463242","12.8398244193763",,
"CON_184","CAMERINO - LOCALIT SANT'ERASMO","43.1243073954864","13.0167014447578",,
"CON_185","SERRAVALLLE LOCALIT CASALI","43.0524227609775","12.9204741514484",,
"CON_186","CAMERINO (CASELLE)","43.1287513488111","13.0525645557052",,
"CON_188","MADDALENA - MOTEL AGIP","43.0755607745516","13.0631940037695",,
"CON_1884","CASETTE VERDINI - ROTONDA","43.2505053609565","13.3994215236493",,
"CON_1887","POLLENZA - EX S.S. 77","43.2462259516573","13.3853128151337",,
"CON_189","SFERCIA IMBOCCO SUPESTRADA","43.1075159500601","13.1284553108753",,
"CON_19","PIORACO - S.P. SEPTEMPEDANA (BIVIO SEPPI","43.1773843397907","12.9958666911095",,
"CON_1910","CAMPOGIANO PONTE FIASRTA","43.2567229796797","13.4788486027698",,
"CON_1911","CAMPOGIANO PONTE FIASTRA","43.2570353930128","13.4788902638159",,
"CON_196","VISSO - LOCALIT CROCE","42.924702295405","13.029951331859",,
"CON_197","FEMATRE","42.9326402904713","13.0122659771647",,
"CON_198","VISSO - LOCALIT RIOFREDDO","42.9439815035427","12.9878823448937",,
"CON_199","VISSO - LOCALIT MEVALE","42.9295536649809","12.9624606434182",,
"CON_2","FABRIANO - LOCALIT CANCELLI","43.3019005811328","12.8396184817879",,
"CON_20","SEPPIO","43.1691559978053","13.0224882613778",,
"CON_200","CHIUSITA","42.9005059302852","12.978223268959",,
"CON_2001","CORRIDONIA P.LE DELLA VITTORIA","43.2507087008238","13.5129202656319",,
"CON_2002","CORRIDONIA VIA TRENTO","43.2508318104216","13.5121362503227",,
"CON_201","S.P. 131 B. CONTR. VILLAMAGNA (VANNI)","43.2059274081833","13.4315390594903",,
"CON_203","CORRIDONIA-S.MARIA","43.2459843936481","13.5079736185991",,
"CON_205","CORRIDONIA (BIVIO RENZI)","43.2599688449274","13.4963281466501",,
"CON_207","MACERATA (BORGO PIEDIRIPA - STAZ. SERVIZ","43.2814766877341","13.4780107775537",,
"CON_21","BRONDOLETO BIVIO","43.1893449578049","13.0387016317558",,
"CON_210","S. CLAUDIO ABB.","43.2839618310426","13.5163789329508",,
"CON_2101","MACERATA SFERISTERIO","43.2996022858062","13.45714373912",,
"CON_211","CORRIDONIA - MORICI","43.2549224402506","13.5043736628772",,
"CON_212","STAZIONE S.CLAUDIO","43.287587780481","13.5325610979984",,
"CON_214","SANTA MARIA APPARENTE","43.2969996341953","13.6900660069366",,
"CON_216","FOLIGNO","42.9543473491721","12.7102499949864",,
"CON_217","S.M.ANGELI","43.0561145078898","12.5782917782257",,
"CON_218","PERUGIA P.PARTIGIANI","43.1059339359695","12.3880258110343",,
"CON_219","CAMERINO - SFERCIA (VARANO)","43.1109588194601","13.1269966004159",,
"CON_22","CAMERINO - TORRE DEL PARCO","43.1964862282855","13.0504784731554",,
"CON_232","USSITA","42.9426771905814","13.1389484054759",,
"CON_240","LOC. SASSO - USSITA","42.9429703314451","13.1285945816601",,
"CON_241","CASTELSANT'ANGELO","42.8951062432276","13.1521027768652",,
"CON_242","PORTO RECANATI - RIONE SCOSSICCI","43.4485556316888","13.655443775386",,
"CON_244","BECERICA (BV. MONTELUPONE)","43.3751518474025","13.5760913703332",,
"CON_245","BECERICA (BV. MONTELUPONE)","43.3750091242004","13.5759846414845",,
"CON_247","MACERATA - VIA LORENZONI","43.294580579953","13.4226110885079",,
"CON_248","MORROVALLE","43.3150017775441","13.5827753621528",,
"CON_249","MONTECOSARO (PALAZZINA)","43.3175233998155","13.6363695404305",,
"CON_25","BRONDOLETO BIVIO","43.1892255350221","13.0388057382193",,
"CON_250","CIVITANOVA ALTA (GIARDINI)","43.3181552559468","13.6778048509216",,
"CON_2501","CIVITANOVA ALTA (GIARDINI)","43.3185338654059","13.6777349540234",,
"CON_2502","CIVITANOVA ALTA (GIARDINI)","43.3184573965778","13.6776661088178",,
"CON_251","FONTESPINA (SCUOLE)","43.3366758760168","13.7095439333102",,
"CON_252","MACERATA (SCALETTE)","43.3013525031342","13.4514180824157",,
"CON_2529","FABRIANO - VETRALLA","43.3218817879587","12.8890030816394",,
"CON_253","APPIGNANO (ZONA IND. IV NOV.)","43.36113684912","13.3494481530826",,
"CON_254","APPIGNANO (ZONA IND. IV NOV.)","43.3612560276601","13.3496233330339",,
"CON_255","APPIGNANO (PIAZZA)","43.3635601295796","13.3467249984855",,
"CON_257","LORETO - P.ZZA BASILI","43.4394513871435","13.6064405430383",,
"CON_258","LORETO - V. MARCONI","43.4400870152808","13.612100881298",,
"CON_259","LORETO STAZIONE","43.4480159556807","13.6199742682579",,
"CON_262","FIUMINATA (LAVERINO)","43.1335989867893","12.8846764341831",,
"CON_263","FIUMINATA (POGGIO SORIFA)","43.14534599724","12.8552256088289",,
"CON_266","FIUMINATA (PONTE CASTELLO)","43.1839019526268","12.92364974923",,
"CON_267","FIUMINATA (GIARDINI)","43.1869797261106","12.9328054126064",,
"CON_269","CASTELRAIMONDO - PIANI DI LANCIANO","43.1848059197894","13.0280367523219",,
"CON_270","CASTELRAIMONDO (P.ZZA DANTE)","43.2074140412644","13.0565378856011",,
"CON_273","SAN SEVERINO - OSPEDALE","43.2358149022232","13.1876622890999",,
"CON_274","TOLENTINO (FS)","43.2140369455204","13.2905384438146",,
"CON_275","SFORZACOSTA (FS) APM","43.2565497976337","13.4168093757746",,
"CON_276","CASTELRAIMONDO (FS)","43.2100932955276","13.057415825533",,
"CON_279","NEMI","43.023850073963","13.0938386089121",,
"CON_28","CAMERINO - BIVIO SANTA BARBARA","43.1002077957154","13.0481152231168",,
"CON_280","FIORDIMONTE","43.0353601741039","13.0904595165387",,
"CON_281","PIEVEBOVIGLIANA","43.0611995581243","13.0848436484144",,
"CON_282","MADDALENA (ZONA ARTIGIANALE)","43.0695988462081","13.0635047482445",,
"CON_283","MUCCIA (BAR CENTRALE)","43.0822110931472","13.0435672788073",,
"CON_285","CAMERINO  (EX ALBERGO LEONE)","43.132658269437","13.0665701324221",,
"CON_287","CAMERINO  (P.ZZA CAVOUR)","43.1358132371462","13.0683703194024",,
"CON_29","MUCCIA","43.0808673121992","13.0435058320999",,
"CON_290","CAMERINO  (POZZETTO)","43.1293790133137","13.0595614081943",,
"CON_291","CAMERINO  (VIA LEOPARDI (C.R.I.)","43.133725566798","13.0679752023148",,
"CON_293","CAMERINO  (VALLICELLE)","43.1281988206231","13.0667044974489",,
"CON_294","CAMERINO  (OSPEDALE)","43.1269230095197","13.0501608134114",,
"CON_295","CAMERINO  (VIA PIERAGOSTINO)","43.1327259469653","13.0649765487215",,
"CON_296","CAMERINO LOCALIT STATTE","43.1467470018607","13.1494872815025",,
"CON_297","CAMERINO LOCALIT POZZUOLO","43.1505474736871","13.1341813192525",,
"CON_298","CAMERINO LOCALIT LE TEGGE","43.1582006153474","13.1231338261187",,
"CON_299","CAMERINO - BIVIO LE TEGGE","43.1690349862744","13.1105136074052",,
"CON_3","CACCIANO","43.283145638695","12.8455421147479",,
"CON_300","CAMERINO - BIVIO SABBIETA","43.1668822874195","13.0859972823225",,
"CON_301","CASTELRAIMONDO LOCALIT CRISPIERO","43.1965761148614","13.0970350542094",,
"CON_302","CAMERINO LOCALIT SABBIETA","43.169668601402","13.0945924261997",,
"CON_3022","CAMERINO - TORRE DEL PARCO","43.1961470241158","13.0508023008082",,
"CON_3039","HELVIA RECINA INCROCIO CINGOLI","43.3241590190783","13.4169557765794",,
"CON_304","CAMERINO - BIVIO VALLE VEGENANA","43.1679342948154","13.0813389836502",,
"CON_305","CAMERINO LOCALIT PIEGUSCIANO","43.1606004144293","13.0851141072983",,
"CON_306","CAMERINO  (MOSSE-PONTI)","43.1441355405529","13.0869839976546",,
"CON_308","CAMERINO  (LARGO ET POI SI MORE)","43.1307624221829","13.0650983181026",,
"CON_309","CAMERINO LOCALIT CAPOLAPIAGGIA","43.1453941411658","13.1190415597782",,
"CON_31","PIEVETORINA","43.0427269438925","13.0484161966025",,
"CON_310","CAMERINO  (SAN DOMENICO)","43.1376753332728","13.0712640500831",,
"CON_312","PORTORECANATI (P.ZA BRANCONDI)","43.4353165570304","13.6623837990394",,
"CON_319","RECANATI (SPACCIO FUSELLI)","43.4042825983992","13.568709993769",,
"CON_321","RECANATI VIA PORTA CERASA (BUS TERMINAL)","43.4029785828179","13.5479312939",,
"CON_323","RECANATI (BV.LE GRAZIE)","43.3985298585804","13.5371697419825",,
"CON_327","S.EGIDIO","43.3470179518349","13.4585776669081",,
"CON_328","S.EGIDIO","43.3471658096898","13.4584406246978",,
"CON_3288","PIEDIRIPA","43.2753469708761","13.4860890006007",,
"CON_3290","CAMERINO - POZZETTO (VALLE)","43.1292559014271","13.0595288744512",,
"CON_33","PIEVETORINA LOCALIT CASAVECCHIA","42.9992492185067","13.0550215158196",,
"CON_332","LORETO - VIA UNGHERIA","43.4402404481137","13.610437497213",,
"CON_333","LORETO - PIAZZA BASILI SP 77","43.4395539736007","13.6067170079283",,
"CON_334","PORTORECANATI (BIVIO SCOSSICCI)","43.4355089257546","13.6581575913846",,
"CON_3341","CAMERINO - LOCALIT CANEPINA","43.1638402675361","13.0591213743973",,
"CON_335","FABRIANO  - P.LE MATTEOTTI","43.3382498853114","12.9082207835949",,
"CON_3358","CAMERINO - BIVIO MECCIANO","43.1903385402761","13.0543576504104",,
"CON_3359","CAMERINO - LOCALIT MECCIANO","43.1827860557248","13.0548144112702",,
"CON_336","FABRIANO  - STAZIONE F.S.","43.3449976362875","12.9054435511378",,
"CON_3362","CAMERINO  CASELLE","43.129289255366","13.0540346934328",,
"CON_337","FABRIANO - PORTA DEL BORGO","43.339417199641","12.9007068175876",,
"CON_338","LOCALIT VISSANI","43.3736969108539","13.419002586121",,
"CON_34","PIEVETORINA - APPENNINO","42.9776341817629","13.0812131064688",,
"CON_341","CAMERINO LOCALIT CANEPINA","43.1637659293747","13.0590153949517",,
"CON_344","PALENTUCCIO BIVIO","43.1400139019463","13.0323388435334",,
"CON_345","CAMERINO (IST.MAG. SAN PAOLO)","43.14519944489","13.0655532069787",,
"CON_346","CAMERINO S.S. 256 BIVIO","43.1472367434932","13.0647209354921",,
"CON_348","CAMERINO - LOCALIT RAGGIANO","43.1343177261821","13.0339731334187",,
"CON_349","PALENTUCCIO BIVIO","43.1397390749428","13.0323381560087",,
"CON_35","VISSO","42.9313116963452","13.0861937385726",,
"CON_350","CAMERINO - LOCALIT SELVAZZANO","43.1353128388991","13.0062056079532",,
"CON_351","CAMERINO - LOCALIT FIGARETO","43.1381550424001","13.0027663927187",,
"CON_352","CAMERINO - LOCALIT MISTRANO","43.1462741528986","13.0073504464585",,
"CON_353","CAMERINO - LOCALIT VALLE S. MARTINO","43.149092029139","13.0093894842295",,
"CON_354","CAMERINO - LOCALIT SELLANO","43.1557136127589","13.0160589708963",,
"CON_355","CAMERINO - LOCALIT PERITO","43.1562651754543","13.0185286596939",,
"CON_356","CAMERINO - LOCALIT COSTA SAN SEVERO","43.1645543677259","13.0222062163384",,
"CON_357","PARADISO","43.1801623369898","13.0112345734649",,
"CON_358","CAMERINO - BIVIO MECCIANO","43.1904104203587","13.0544872150657",,
"CON_359","CAMERINO - LOCALIT MECCIANO","43.1828544540814","13.0549905530924",,
"CON_36","MOLINI","42.9071157429848","13.0320306238635",,
"CON_360","MECCIANO","43.1816850135495","13.0499544221795",,
"CON_361","MERGNANO S.PIETRO","43.171614678745","13.0462056744655",,
"CON_362","CAMERINO CASELLE","43.1292589678881","13.0540851861717",,
"CON_363","CAMERINO - LOCALIT STRADA - EX S.S. 256","43.1169873594607","13.0554974886764",,
"CON_364","MECCIANO","43.1817006944104","13.0497033058068",,
"CON_365","CIMARELLA","43.3690878232406","13.4081437255168",,
"CON_366","CIMARELLA","43.36948562718","13.4085558941597",,
"CON_367","MERGNANO S.PIETRO","43.1716066215151","13.0460481774208",,
"CON_369","CAMERINO - PONTE VALENTE EX S.S. 77","43.1002583475917","13.1270832944553",,
"CON_37","CERVARA","42.9037229415969","13.0230039303948",,
"CON_370","BELFORTE (BORGO S.MARIA)","43.1614490915772","13.239371967635",,
"CON_372","FORNACI","43.1744629631159","13.2514208156566",,
"CON_373","TOLENTINO - LOCALIT LE GRAZIE (CHIESA)","43.1888727368178","13.2660545839749",,
"CON_374","TOLENTINO(FAGIANO D'ORO)","43.2073468151942","13.277830913328",,
"CON_375","TOLENTINO (TORRIONE)","43.2095115729688","13.28868908529",,
"CON_376","TOLENTINO (STADIO)","43.2103547104573","13.2924609641955",,
"CON_377","CASETTE VERDINI (RIST. CASETTA)","43.2504260904533","13.4008250691388",,
"CON_378","MACERATA - VILL'ALBA","43.2927472321394","13.4373988001014",,
"CON_379","MACERATA (MONUMENTO)","43.3012911857248","13.440769553487",,
"CON_38","PONTECHIUSSITA","42.8799762900517","12.9918399650669",,
"CON_380","CARDAROLA - CACCAMO (RIST. FERRANTI)","43.1463972360231","13.207432348897",,
"CON_3800","ANCONA STAZIONE F.S","43.6073334548293","13.4984463059166",,
"CON_3801","ANCONA VIALE CRISTOFORO COLOMBO","43.6016009827614","13.5063615682986",,
"CON_3802","MACERATA V.LE DON BOSCO","43.2974440226582","13.4538672688207",,
"CON_381","CALDAROLA (PIAZZA)","43.1383076111108","13.2262649449103",,
"CON_3850","MACERATA ITAS-ITG","43.2940671276311","13.4381517622791",,
"CON_3851","PIEDIRIPA - BIVIO STAZIONE","43.2819476141817","13.4849712224341",,
"CON_3852","PIEDIRIPA - BIVIO STAZIONE","43.2822661340305","13.4848537898688",,
"CON_3853","CAMERINO - CONTI DI BORGO","43.1267796701882","13.0698156935341",,
"CON_3855","CAMERINO FONTI SAN VENANZO","43.1445985737666","13.0565792358775",,
"CON_396","RECANATI (LICEO)","43.4015557887165","13.5622109743473",,
"CON_4","SERRADICA","43.2656098387185","12.8496016339689",,
"CON_404","FILOTTRANO AUTOSTAZIONE","43.4369716075591","13.3509503675396",,
"CON_405","PORTO RECANATI - BIVIO REGINA-S.S.16","43.4079503644877","13.6758707928958",,
"CON_406","PORTO POTENZA - SAN GIRO","43.3959548154622","13.6468217579543",,
"CON_408","RECANATI - LOC . FONTENOCE","43.3644515851485","13.5109278041814",,
"CON_409","RECANATI - LOC . FONTENOCE","43.36459935517","13.5108587293475",,
"CON_411","MACERATA STAZ. F.S.","43.2930434694344","13.4560701766073",,
"CON_412","CARDAROLA - BISTOCCO","43.1374218582901","13.1604626252711",,
"CON_413","MATELICA R.PACIS","43.247327944491","13.0055928226521",,
"CON_414","MATELICA R.PACIS","43.2472317006337","13.0055764773708",,
"CON_415","MATELICA (V.LE BATTISTI)","43.2499084456838","13.0095941380817",,
"CON_417","MATELICA (EX OSPEDALE)","43.2591855620116","13.0122522181409",,
"CON_418","MATELICA-V.LE MARTIRI DELLA LIBERTA'","43.2508864073373","13.0084753065882",,
"CON_419","MATELICA LEBOLE(ZONA INDUSTRIALE)","43.2749935316963","13.0040432545108",,
"CON_420","CERRETO D'ESI (BETA ROTOLI)","43.3132437181842","12.9865600346903",,
"CON_421","CERRETO D'ESI (PIAZZA)","43.3212298612825","12.9856036557651",,
"CON_422","CERRETO D'ESI (PIAZZA)","43.321178857046","12.9857035704338",,
"CON_423","CERRETO D'ESI (BETA ROTOLI)","43.313241133977","12.9862951892845",,
"CON_424","ALBACINA (CIMITERO)","43.3398621837541","13.000390176664",,
"CON_425","ALBACINA (PAESE)","43.3402562562699","13.0079201360756",,
"CON_426","ALBACINA (STAZIONE)","43.3462676274195","12.9864243949945",,
"CON_427","FABRIANO - SANTA MARIA (ELICA)","43.3472553347595","12.9411195821447",,
"CON_430","PIEVETORINA - BIVIO ASCHIO-APPENNINO S.S","42.9670677194279","13.0788083207787",,
"CON_433","CASPREANO (BIVIO)","43.0218791780838","13.0338836002054",,
"CON_434","MONTECAVALLO","42.9947276216385","13.001408549518",,
"CON_436","BORGO TUFICO (STABILIMENTO)","43.3476746492632","12.9996956465818",,
"CON_437","ROCCHETTA (BIVIO)","43.3447160725109","12.9623857848347",,
"CON_439","PIEDIRIPA S.P. 485 INCR. CENTRO COMMERCI","43.2754354326395","13.4989812301479",,
"CON_44","SCHEGGINO","42.7115877703009","12.8294058746453",,
"CON_440","PIEDIRIPA BIVIO STAZIONE E S.CLAUDIO","43.2736399341075","13.5262426618419",,
"CON_441","MORROVALLE - SARROCCIANO METANO","43.2695166290019","13.5647304562257",,
"CON_442","MORROVALLE - TRODICA BIVIO MONTE SAN GIU","43.2696028662731","13.5847236132495",,
"CON_443","MORROVALLE - TRODICA PASS. LIVELLO","43.2789088296426","13.5866420948766",,
"CON_444","TRODICA CENTRO","43.273702961588","13.5929594642013",,
"CON_445","MORROVALLE - TRODICA SCATOLIFICIO","43.2753293409838","13.5982741153128",,
"CON_448","CIVITANOVA MARCHE SAN MARONE","43.3043879219837","13.7205880955587",,
"CON_449","MONTE SAN GIUSTO (B.P.LE FERMANA) TRANSF","43.2343048569398","13.5967205438678",,
"CON_45","CESELLI","42.6853229803539","12.8180898064605",,
"CON_454","CORRIDONIA - CAMPOGIANO (BAR MORETTA)","43.255088597449","13.4611377393934",,
"CON_457","CALDAROLA (VINI QUACQUARINI)","43.1411676321362","13.2241197343528",,
"CON_46","LA VALLE","42.6458788603572","12.8249561527352",,
"CON_462","RECANATI (I.T.I.S.)","43.4018207094598","13.5595559761251",,
"CON_468","ANCONA (BUS TERMINAL) P.ZZA CAVOUR","43.6162843472037","13.5176448091102",,
"CON_469","MOGLIANO ZAZZARETTA","43.1920455330921","13.472582905362",,
"CON_47","FERENTILLO","42.6200937190359","12.7918478852132",,
"CON_470","PETROLIO CASTELLETTA","43.2309150551157","13.4799078312413",,
"CON_473","CORRIDONIA Z.INDUSTRIALE","43.2637590444144","13.4915706681726",,
"CON_474","CIVITANOVA MARCHE - P.ZZA XX SETTEMBRE","43.3069471375624","13.7284342231885",,
"CON_48","ARRONE","42.5876069894022","12.7634630384604",,
"CON_49","TERNI (AUTOSTAZIONE A.T.C.)","42.5697100738967","12.6527453940705",,
"CON_4901","ANCONA - P.ZZA ROMA","43.6173283909299","13.5129327192168",,
"CON_4902","ANCONA - P.ZZA ROMA","43.6173728124755","13.513032862768",,
"CON_4903","ANCONA - P.ZZA KENNEDY","43.6184048071772","13.5097083026104",,
"CON_4904","ANCONA - 29 SETTEMBRE","43.6178799809468","13.5083677063211",,
"CON_4905","ANCONA - VIA G.BRUNO","43.6072267353744","13.500419992506",,
"CON_494","SAN SEVERINO - STAZIONE F.S.","43.2297867823008","13.18308457967",,
"CON_5","BELVEDERE","43.2397127429678","12.8586453576046",,
"CON_5000","ABBADIA DI FIASTRA (SASP)","43.2210069601435","13.4030249427295",,
"CON_5001","AMANDOLA","42.980485318212","13.3560778055881",,
"CON_5002","APPIGNANO VIA ALIGHIERI","43.3611725299488","13.3472942422585",,
"CON_5003","APIRO (V.LE TRIESTE)","43.390408834581","13.1320291414103",,
"CON_5004","ARGIGNANO","43.3251230288344","12.9573673462339",,
"CON_5005","FABRIANO - FRAZIONE ATTIGGIO","43.3063577287266","12.9221467126436",,
"CON_5006","CERRETO D'ESI - BIVIO S.MICHELE","43.3133009165319","12.9469834248291",,
"CON_5007","CINGOLI - BIVIO V. POZZO SS502","43.3892161612354","13.2027921959531",,
"CON_5008","BIVIO S.MICHELE","43.3132963379844","12.9468538080288",,
"CON_5009","POLLENZA - BIVIO RAMBONA","43.2640343024603","13.3183326147924",,
"CON_5011","COLLAMATO","43.291734068011","12.9491695386772",,
"CON_5012","COLMURANO","43.1644340537562","13.3582787534406",,
"CON_5013","COMUNANZA","42.9595840688052","13.4133464567085",,
"CON_5014","FABRIANO-L.GO F.LLI ROSSELLI","43.337661590182","12.9123286148535",,
"CON_5016","CINGOLI","43.3765124624889","13.2133907927769",,
"CON_5017","CINGOLI C.S.ANGELO","43.3440688339493","13.1829432892657",,
"CON_5019","CONVENTO (SASP)","43.194459276503","13.383092945556",,
"CON_5020","SAN GINESIO - SP. 126 (CASA GRAZIOSI)","43.1149100546469","13.3160385498023",,
"CON_5021","CASTEL S.MARIA","43.2070518392198","12.9995008050541",,
"CON_5022","CASTELLETTA DI FABRIANO","43.4024685649385","13.0066917064605",,
"CON_5023","CASTEL S.MARIA","43.2069913602037","12.999462382371",,
"CON_5025","DOMO","43.4015583773869","13.0622146810602",,
"CON_5029","FERMO (PARCHEGGIO)","43.1637792540174","13.7177082527195",,
"CON_5030","FRONTALE BIVIO","43.3531693139872","13.1069770813659",,
"CON_5031","FAVETE","43.4220042301735","13.0989095164551",,
"CON_5032","GUALDO","43.067212676679","13.3382212670189",,
"CON_5033","GROTTACCIA","43.3441195336288","13.2748983461143",,
"CON_5034","JESI (PORTA VALLE)","43.5235395652785","13.2495795704702",,
"CON_5036","GROTTACCIA","43.3442144334583","13.2750023789119",,
"CON_5037","LORO PICENO","43.1649992986336","13.4158156268642",,
"CON_5038","LORETO ALBERGHIERO","43.4338824794279","13.6092316261248",,
"CON_5039","MACERATA CENTRO FIERE","43.333255227622","13.4290024252059",,
"CON_5040","MACERATA CENTRO FIERE","43.3333005066567","13.4289353137851",,
"CON_5043","MADONNA DEL MONTE (MACERATA)","43.3322449109672","13.4740009760407",,
"CON_5044","MACERATA - S.MARIA IN SELVA","43.3168035698422","13.3999731632445",,
"CON_5045","CHIARAVALLE (MC)","43.3088442016969","13.3839903068042",,
"CON_5046","MONTECASSIANO (ROGANTI)","43.336857061996","13.4334351829407",,
"CON_5047","MONTECASSIANO (ROGANTI)","43.3367975130378","13.4335308865018",,
"CON_5048","MACERATA - VIA ROMA","43.3006958414544","13.4405331776006",,
"CON_505","SAN SEVERINO - LOCALIT TACCOLI","43.2406773600862","13.2162838724862",,
"CON_5053","MACERATA S.MARIA IN SELVA","43.3167250744472","13.4000822266508",,
"CON_5054","TERMINE (MONTELUPONE)","43.3311913547243","13.5133056897851",,
"CON_5056","MUMMUIOLA","43.3980311937302","13.2090239378049",,
"CON_5058","MONTEGIORGIO SCALO","43.114173052758","13.5623953409099",,
"CON_5059","MONTELUPONE","43.3429183894404","13.5705421429217",,
"CON_5060","MONTAPPONE","43.1353512752081","13.4692891837638",,
"CON_5062","MONTE SAN MARTINO","43.0321423570048","13.4391577361748",,
"CON_5063","MONTE VIDON CORRADO","43.1209328992893","13.4879147424422",,
"CON_5064","MONTE S.MARTINO SCALO","43.0238044310811","13.4573178538905",,
"CON_5065","MASSA FERMANA","43.1490461345562","13.4744622873268",,
"CON_5066","URBISAGLIA  - MAESTA'","43.2060548928345","13.3898414233208",,
"CON_5067","MATELICA-STAZ. FF.SS.","43.2540785057038","13.0147357265241",,
"CON_5070","OSIMO AUTOSTAZIONE","43.4844190813311","13.4843138280639",,
"CON_5072","POGGIO SAN VICINO","43.3753086834675","13.07822999881",,
"CON_5073","POGGIO","43.0578415085559","13.3113460216551",,
"CON_5075","SAN GINESIO - LOC. PIAN DI PIECA (BIVIO)","43.0759431042059","13.2797044187971",,
"CON_5077","PENNA S.GIOVANNI","43.0569007301796","13.4271703376245",,
"CON_5078","CIVITANOVA MARCHE SS 16 (AGIP SUD)","43.3416974647244","13.7065696724581",,
"CON_5079","P.P.PICENA IST. S. STEFANO","43.3692930049689","13.6932612270265",,
"CON_5081","PORTO POTENZA PICENA","43.3540992927762","13.6993828599437",,
"CON_5082","PORTO POTENZA PICENA DISTR. AGIP","43.3851350022293","13.686329369887",,
"CON_5084","COLMURANO - PASSO LORO","43.1586216701094","13.3774762235546",,
"CON_5086","PASSO S.GINESIO-SASP","43.1128235818167","13.3689719733106",,
"CON_5087","POTENZA PICENA","43.3682991640823","13.6225190148343",,
"CON_5090","RAMBONA","43.2654873337695","13.3115019666929",,
"CON_5091","RIPE S.GINESIO","43.1426373587125","13.367129561775",,
"CON_5092","RUSTANO","43.2108730137894","13.0326350380232",,
"CON_5093","S.ANGELO IN PONTANO","43.0991930255362","13.3976589920412",,
"CON_5095","S.FAUSTINO","43.3966321125568","13.3013544060006",,
"CON_5098","S.ANGELO IN PONTANO","43.0988766403361","13.3975813140955",,
"CON_5099","SAN GINESIO","43.1064138347337","13.3241978868317",,
"CON_510","CESOLO","43.2648178326034","13.1923646605977",,
"CON_5101","SAN GIOVANNI ALTO","43.3871687301669","13.0439051097181",,
"CON_5102","SAN GIOVANNI BIVIO","43.3942050271683","13.034924027046",,
"CON_5104","BIVIO Z.I. COLLICELLI","43.4021249830534","13.2044883131779",,
"CON_5105","S.ELIA","43.4196905130204","13.0395040791629",,
"CON_5106","SARNANO","43.0358770933566","13.2982173173376",,
"CON_5107","SERRAPETRONA","43.1757960480258","13.1866292604394",,
"CON_5109","SERRA S.QUIRICO STAZ.","43.4456952844135","13.0274238478978",,
"CON_5110","SERVIGLIANO","43.0815004781458","13.4909335763303",,
"CON_5111","S.VITTORE","43.438647880375","13.2427250419474",,
"CON_5112","TOLENTINO - VIA MURAT (INIZIO SU PENSILI","43.2083047902937","13.287473376115",,
